$GNRMC,080706.00,A,3737.9914216,N,12704.6584958,E,0.0,,140324,8.8,W,D*10
$PSSN,HRP,080706.00,140324,111.195,,1.470,0.140,,0.329,32,2,8.836,W*13
$GNRMC,080707.00,A,3737.9914222,N,12704.6584942,E,0.0,,140324,8.8,W,D*1D
$PSSN,HRP,080707.00,140324,111.267,,1.193,0.140,,0.331,32,2,8.836,W*1D
$GNRMC,080708.00,A,3737.9914227,N,12704.6584919,E,0.0,,140324,8.8,W,D*19
$PSSN,HRP,080708.00,140324,111.245,,1.368,0.139,,0.330,32,2,8.836,W*1B
$GNRMC,080709.00,A,3737.9914209,N,12704.6584917,E,0.0,,140324,8.8,W,D*1A
$PSSN,HRP,080709.00,140324,111.242,,1.093,0.140,,0.331,32,2,8.836,W*15
$GNRMC,080710.00,A,3737.9914203,N,12704.6584920,E,0.0,,140324,8.8,W,D*1C
$PSSN,HRP,080710.00,140324,111.228,,1.321,0.141,,0.331,32,2,8.836,W*1A
$GNRMC,080711.00,A,3737.9914213,N,12704.6584898,E,0.0,,140324,8.8,W,D*1E
$PSSN,HRP,080711.00,140324,111.212,,1.331,0.140,,0.330,32,2,8.836,W*13
$GNRMC,080712.00,A,3737.9914205,N,12704.6584936,E,0.0,,140324,8.8,W,D*1F
$PSSN,HRP,080712.00,140324,111.221,,1.344,0.140,,0.331,32,2,8.836,W*13
$GNRMC,080713.00,A,3737.9914201,N,12704.6584958,E,0.0,,140324,8.8,W,D*12
$PSSN,HRP,080713.00,140324,111.199,,1.386,0.140,,0.328,32,2,8.836,W*14
$GNRMC,080714.00,A,3737.9914204,N,12704.6584974,E,0.0,,140324,8.8,W,D*1E
$PSSN,HRP,080714.00,140324,111.265,,1.216,0.140,,0.331,32,2,8.836,W*13
$GNRMC,080715.00,A,3737.9914211,N,12704.6584941,E,0.0,,140324,8.8,W,D*1D
$PSSN,HRP,080715.00,140324,111.240,,1.502,0.140,,0.331,32,2,8.836,W*17
$GNRMC,080716.00,A,3737.9914212,N,12704.6584914,E,0.0,,140324,8.8,W,D*1D
$PSSN,HRP,080716.00,140324,111.240,,1.257,0.140,,0.333,32,2,8.836,W*11
$GNRMC,080717.00,A,3737.9914219,N,12704.6584904,E,0.0,,140324,8.8,W,D*16
$PSSN,HRP,080717.00,140324,111.288,,1.379,0.140,,0.329,32,2,8.836,W*12
$GNRMC,080718.00,A,3737.9914211,N,12704.6584928,E,0.0,,140324,8.8,W,D*1F
$PSSN,HRP,080718.00,140324,111.232,,1.312,0.140,,0.332,32,2,8.836,W*1B
$GNRMC,080719.00,A,3737.9914197,N,12704.6584972,E,0.0,,140324,8.8,W,D*1C
$PSSN,HRP,080719.00,140324,111.295,,1.367,0.139,,0.328,32,2,8.836,W*10
$GNRMC,080720.00,A,3737.9914189,N,12704.6584977,E,0.0,,140324,8.8,W,D*1C
$PSSN,HRP,080720.00,140324,111.272,,1.201,0.140,,0.331,32,2,8.836,W*14
$GNRMC,080721.00,A,3737.9914202,N,12704.6584969,E,0.0,,140324,8.8,W,D*12
$PSSN,HRP,080721.00,140324,111.351,,1.491,0.140,,0.331,32,2,8.836,W*1A
$GNRMC,080722.00,A,3737.9914199,N,12704.6584950,E,0.0,,140324,8.8,W,D*1A
$PSSN,HRP,080722.00,140324,111.292,,1.445,0.140,,0.331,32,2,8.836,W*1E
$GNRMC,080723.00,A,3737.9914213,N,12704.6584938,E,0.0,,140324,8.8,W,D*14
$PSSN,HRP,080723.00,140324,111.256,,1.179,0.140,,0.331,32,2,8.836,W*1D
$GNRMC,080724.00,A,3737.9914215,N,12704.6584946,E,0.0,,140324,8.8,W,D*1C
$PSSN,HRP,080724.00,140324,111.243,,1.300,0.141,,0.331,32,2,8.836,W*13
$GNRMC,080725.00,A,3737.9914211,N,12704.6584934,E,0.0,,140324,8.8,W,D*1C
$PSSN,HRP,080725.00,140324,111.229,,1.270,0.140,,0.330,32,2,8.836,W*18
$GNRMC,080726.00,A,3737.9914210,N,12704.6584944,E,0.0,,140324,8.8,W,D*19
$PSSN,HRP,080726.00,140324,111.238,,1.386,0.140,,0.329,32,2,8.836,W*1B
$GNRMC,080727.00,A,3737.9914207,N,12704.6584945,E,0.0,,140324,8.8,W,D*1F
$PSSN,HRP,080727.00,140324,111.237,,1.323,0.140,,0.330,32,2,8.836,W*12
$GNRMC,080728.00,A,3737.9914206,N,12704.6584950,E,0.0,,140324,8.8,W,D*15
$PSSN,HRP,080728.00,140324,111.273,,1.069,0.140,,0.331,32,2,8.836,W*11
$GNRMC,080729.00,A,3737.9914201,N,12704.6584958,E,0.0,,140324,8.8,W,D*1B
$PSSN,HRP,080729.00,140324,111.258,,1.209,0.140,,0.330,32,2,8.836,W*1C
$GNRMC,080730.00,A,3737.9914191,N,12704.6584952,E,0.0,,140324,8.8,W,D*13
$PSSN,HRP,080730.00,140324,111.224,,1.331,0.140,,0.330,32,2,8.836,W*15
$GNRMC,080731.00,A,3737.9914183,N,12704.6584955,E,0.0,,140324,8.8,W,D*16
$PSSN,HRP,080731.00,140324,111.190,,1.489,0.140,,0.330,32,2,8.836,W*1C
$GNRMC,080732.00,A,3737.9914199,N,12704.6584929,E,0.0,,140324,8.8,W,D*15
$PSSN,HRP,080732.00,140324,111.210,,1.362,0.140,,0.329,32,2,8.836,W*1E
$GNRMC,080733.00,A,3737.9914207,N,12704.6584905,E,0.0,,140324,8.8,W,D*1E
$PSSN,HRP,080733.00,140324,111.206,,1.186,0.140,,0.329,32,2,8.836,W*10
$GNRMC,080734.00,A,3737.9914216,N,12704.6584909,E,0.0,,140324,8.8,W,D*15
$PSSN,HRP,080734.00,140324,111.191,,1.221,0.140,,0.330,32,2,8.836,W*1C
$GNRMC,080735.00,A,3737.9914205,N,12704.6584949,E,0.0,,140324,8.8,W,D*12
$PSSN,HRP,080735.00,140324,111.228,,1.039,0.140,,0.329,32,2,8.836,W*1F
$GNRMC,080736.00,A,3737.9914199,N,12704.6584974,E,0.0,,140324,8.8,W,D*19
$PSSN,HRP,080736.00,140324,111.289,,1.388,0.139,,0.329,32,2,8.836,W*10
$GNRMC,080737.00,A,3737.9914196,N,12704.6584955,E,0.0,,140324,8.8,W,D*14
$PSSN,HRP,080737.00,140324,111.202,,1.336,0.139,,0.328,32,2,8.836,W*16
$GNRMC,080738.00,A,3737.9914214,N,12704.6584957,E,0.0,,140324,8.8,W,D*10
$PSSN,HRP,080738.00,140324,111.226,,1.414,0.139,,0.328,32,2,8.836,W*18
$GNRMC,080739.00,A,3737.9914197,N,12704.6584951,E,0.0,,140324,8.8,W,D*1F
$PSSN,HRP,080739.00,140324,111.283,,1.165,0.140,,0.329,32,2,8.836,W*1A
$GNRMC,080740.00,A,3737.9914186,N,12704.6584928,E,0.0,,140324,8.8,W,D*1F
$PSSN,HRP,080740.00,140324,111.261,,1.135,0.140,,0.328,32,2,8.836,W*1C
$GNRMC,080741.00,A,3737.9914195,N,12704.6584928,E,0.0,,140324,8.8,W,D*1C
$PSSN,HRP,080741.00,140324,111.276,,1.309,0.140,,0.329,32,2,8.836,W*17
$GNRMC,080742.00,A,3737.9914185,N,12704.6584951,E,0.0,,140324,8.8,W,D*10
$PSSN,HRP,080742.00,140324,111.218,,1.110,0.140,,0.329,32,2,8.836,W*16
$GNRMC,080743.00,A,3737.9914205,N,12704.6584945,E,0.0,,140324,8.8,W,D*1F
$PSSN,HRP,080743.00,140324,111.257,,1.420,0.140,,0.328,32,2,8.836,W*1B
$GNRMC,080744.00,A,3737.9914202,N,12704.6584950,E,0.0,,140324,8.8,W,D*1B
$PSSN,HRP,080744.00,140324,111.232,,1.264,0.139,,0.329,32,2,8.836,W*16
$GNRMC,080745.00,A,3737.9914215,N,12704.6584935,E,0.0,,140324,8.8,W,D*1F
$PSSN,HRP,080745.00,140324,111.239,,1.162,0.140,,0.329,32,2,8.836,W*17
$GNRMC,080746.00,A,3737.9914209,N,12704.6584954,E,0.0,,140324,8.8,W,D*16
$PSSN,HRP,080746.00,140324,111.209,,1.343,0.140,,0.329,32,2,8.836,W*16
$GNRMC,080747.00,A,3737.9914215,N,12704.6584943,E,0.0,,140324,8.8,W,D*1C
$PSSN,HRP,080747.00,140324,111.219,,1.408,0.139,,0.329,32,2,8.836,W*10
$GNRMC,080748.00,A,3737.9914205,N,12704.6584955,E,0.0,,140324,8.8,W,D*15
$PSSN,HRP,080748.00,140324,111.234,,1.198,0.140,,0.328,32,2,8.836,W*13
$GNRMC,080749.00,A,3737.9914192,N,12704.6584981,E,0.0,,140324,8.8,W,D*10
$PSSN,HRP,080749.00,140324,111.254,,1.256,0.140,,0.328,32,2,8.836,W*15
$GNRMC,080750.00,A,3737.9914185,N,12704.6584988,E,0.0,,140324,8.8,W,D*17
$PSSN,HRP,080750.00,140324,111.241,,1.297,0.139,,0.328,32,2,8.836,W*1A
$GNRMC,080751.00,A,3737.9914202,N,12704.6584969,E,0.0,,140324,8.8,W,D*15
$PSSN,HRP,080751.00,140324,111.278,,1.056,0.142,,0.338,31,2,8.836,W*10
$GNRMC,080752.00,A,3737.9914213,N,12704.6584930,E,0.0,,140324,8.8,W,D*1A
$PSSN,HRP,080752.00,140324,111.266,,1.082,0.140,,0.328,32,2,8.836,W*15
$GNRMC,080753.00,A,3737.9914214,N,12704.6584915,E,0.0,,140324,8.8,W,D*1B
$PSSN,HRP,080753.00,140324,111.195,,1.653,0.139,,0.327,32,2,8.836,W*10
$GNRMC,080754.00,A,3737.9914226,N,12704.6584925,E,0.0,,140324,8.8,W,D*1E
$PSSN,HRP,080754.00,140324,111.277,,1.455,0.141,,0.337,31,2,8.836,W*11
$GNRMC,080755.00,A,3737.9914209,N,12704.6584953,E,0.0,,140324,8.8,W,D*13
$PSSN,HRP,080755.00,140324,111.253,,1.251,0.141,,0.338,32,2,8.836,W*18
$GNRMC,080756.00,A,3737.9914210,N,12704.6584947,E,0.0,,140324,8.8,W,D*1D
$PSSN,HRP,080756.00,140324,111.277,,1.305,0.139,,0.328,32,2,8.836,W*13
$GNRMC,080757.00,A,3737.9914217,N,12704.6584948,E,0.0,,140324,8.8,W,D*14
$PSSN,HRP,080757.00,140324,111.198,,1.437,0.139,,0.327,32,2,8.836,W*19
$GNRMC,080758.00,A,3737.9914228,N,12704.6584944,E,0.0,,140324,8.8,W,D*1B
$PSSN,HRP,080758.00,140324,111.273,,1.231,0.138,,0.328,32,2,8.836,W*1E
$GNRMC,080759.00,A,3737.9914202,N,12704.6584931,E,0.0,,140324,8.8,W,D*10
$PSSN,HRP,080759.00,140324,111.260,,1.214,0.140,,0.335,31,2,8.836,W*1A
$GNRMC,080800.00,A,3737.9914184,N,12704.6584916,E,0.0,,140324,8.8,W,D*1B
$PSSN,HRP,080800.00,140324,111.220,,1.441,0.139,,0.327,32,2,8.836,W*15
$GNRMC,080801.00,A,3737.9914197,N,12704.6584924,E,0.0,,140324,8.8,W,D*19
$PSSN,HRP,080801.00,140324,111.249,,1.403,0.138,,0.326,32,2,8.836,W*1D
$GNRMC,080802.00,A,3737.9914196,N,12704.6584927,E,0.0,,140324,8.8,W,D*18
$PSSN,HRP,080802.00,140324,111.247,,1.350,0.139,,0.334,31,2,8.836,W*10
$GNRMC,080803.00,A,3737.9914211,N,12704.6584910,E,0.0,,140324,8.8,W,D*11
$PSSN,HRP,080803.00,140324,111.283,,1.287,0.139,,0.335,32,2,8.836,W*10
$GNRMC,080804.00,A,3737.9914225,N,12704.6584925,E,0.0,,140324,8.8,W,D*17
$PSSN,HRP,080804.00,140324,111.252,,1.223,0.138,,0.326,32,2,8.836,W*16
$GNRMC,080805.00,A,3737.9914226,N,12704.6584915,E,0.0,,140324,8.8,W,D*16
$PSSN,HRP,080805.00,140324,111.264,,1.391,0.137,,0.323,32,2,8.836,W*10
$GNRMC,080806.00,A,3737.9914227,N,12704.6584937,E,0.0,,140324,8.8,W,D*14
$PSSN,HRP,080806.00,140324,111.257,,1.356,0.138,,0.326,32,2,8.836,W*12
$GNRMC,080807.00,A,3737.9914214,N,12704.6584938,E,0.0,,140324,8.8,W,D*1A
$PSSN,HRP,080807.00,140324,111.294,,1.129,0.140,,0.336,31,2,8.836,W*1B
$GNRMC,080808.00,A,3737.9914200,N,12704.6584949,E,0.0,,140324,8.8,W,D*16
$PSSN,HRP,080808.00,140324,111.274,,1.349,0.138,,0.327,32,2,8.836,W*12
$GNRMC,080809.00,A,3737.9914189,N,12704.6584937,E,0.0,,140324,8.8,W,D*1C
$PSSN,HRP,080809.00,140324,111.295,,1.201,0.140,,0.335,31,2,8.836,W*1E
$GNRMC,080810.00,A,3737.9914184,N,12704.6584928,E,0.0,,140324,8.8,W,D*17
$PSSN,HRP,080810.00,140324,111.203,,1.569,0.138,,0.325,32,2,8.836,W*1D
$GNRMC,080811.00,A,3737.9914195,N,12704.6584929,E,0.0,,140324,8.8,W,D*17
$PSSN,HRP,080811.00,140324,111.249,,1.456,0.138,,0.326,32,2,8.836,W*1C
$GNRMC,080812.00,A,3737.9914190,N,12704.6584930,E,0.0,,140324,8.8,W,D*19
$PSSN,HRP,080812.00,140324,111.266,,1.280,0.139,,0.334,31,2,8.836,W*1E
$GNRMC,080813.00,A,3737.9914196,N,12704.6584946,E,0.0,,140324,8.8,W,D*1F
$PSSN,HRP,080813.00,140324,111.345,,1.183,0.139,,0.333,32,2,8.836,W*1B
$GNRMC,080814.00,A,3737.9914207,N,12704.6584949,E,0.0,,140324,8.8,W,D*1C
$PSSN,HRP,080814.00,140324,111.296,,1.601,0.137,,0.324,32,2,8.836,W*16
$GNRMC,080815.00,A,3737.9914221,N,12704.6584943,E,0.0,,140324,8.8,W,D*13
$PSSN,HRP,080815.00,140324,111.279,,1.561,0.140,,0.333,31,2,8.836,W*16
$GNRMC,080816.00,A,3737.9914205,N,12704.6584942,E,0.0,,140324,8.8,W,D*17
$PSSN,HRP,080816.00,140324,111.223,,1.366,0.138,,0.325,32,2,8.836,W*10
$GNRMC,080817.00,A,3737.9914191,N,12704.6584955,E,0.0,,140324,8.8,W,D*1E
$PSSN,HRP,080817.00,140324,111.248,,1.504,0.140,,0.334,31,2,8.836,W*12
$GNRMC,080818.00,A,3737.9914200,N,12704.6584957,E,0.0,,140324,8.8,W,D*18
$PSSN,HRP,080818.00,140324,111.207,,1.409,0.138,,0.325,32,2,8.836,W*16
$GNRMC,080819.00,A,3737.9914207,N,12704.6584944,E,0.0,,140324,8.8,W,D*1C
$PSSN,HRP,080819.00,140324,111.244,,1.228,0.139,,0.335,31,2,8.836,W*16
$GNRMC,080820.00,A,3737.9914199,N,12704.6584907,E,0.0,,140324,8.8,W,D*15
$PSSN,HRP,080820.00,140324,111.254,,1.382,0.138,,0.326,32,2,8.836,W*1C
$GNRMC,080821.00,A,3737.9914195,N,12704.6584934,E,0.0,,140324,8.8,W,D*18
$PSSN,HRP,080821.00,140324,111.283,,1.160,0.140,,0.333,31,2,8.836,W*11
$GNRMC,080822.00,A,3737.9914191,N,12704.6584936,E,0.0,,140324,8.8,W,D*1D
$PSSN,HRP,080822.00,140324,111.324,,1.272,0.138,,0.324,32,2,8.836,W*14
$GNRMC,080823.00,A,3737.9914193,N,12704.6584908,E,0.0,,140324,8.8,W,D*13
$PSSN,HRP,080823.00,140324,111.286,,1.350,0.140,,0.332,31,2,8.836,W*16
$GNRMC,080824.00,A,3737.9914213,N,12704.6584917,E,0.0,,140324,8.8,W,D*11
$PSSN,HRP,080824.00,140324,111.259,,1.567,0.138,,0.325,32,2,8.836,W*1B
$GNRMC,080825.00,A,3737.9914223,N,12704.6584933,E,0.0,,140324,8.8,W,D*15
$PSSN,HRP,080825.00,140324,111.278,,1.429,0.140,,0.334,31,2,8.836,W*1E
$GNRMC,080826.00,A,3737.9914195,N,12704.6584967,E,0.0,,140324,8.8,W,D*19
$PSSN,HRP,080826.00,140324,111.274,,0.952,0.138,,0.326,32,2,8.836,W*1E
$GNRMC,080827.00,A,3737.9914180,N,12704.6584990,E,0.0,,140324,8.8,W,D*14
$PSSN,HRP,080827.00,140324,111.272,,1.632,0.139,,0.325,32,2,8.836,W*13
$GNRMC,080828.00,A,3737.9914184,N,12704.6584986,E,0.0,,140324,8.8,W,D*18
$PSSN,HRP,080828.00,140324,111.279,,1.500,0.140,,0.334,31,2,8.836,W*18
$GNRMC,080829.00,A,3737.9914194,N,12704.6584935,E,0.0,,140324,8.8,W,D*10
$PSSN,HRP,080829.00,140324,111.379,,1.310,0.139,,0.333,32,2,8.836,W*15
$GNRMC,080830.00,A,3737.9914189,N,12704.6584917,E,0.0,,140324,8.8,W,D*14
$PSSN,HRP,080830.00,140324,111.251,,1.502,0.138,,0.324,32,2,8.836,W*14
$GNRMC,080831.00,A,3737.9914195,N,12704.6584921,E,0.0,,140324,8.8,W,D*1D
$PSSN,HRP,080831.00,140324,111.309,,1.429,0.140,,0.332,31,2,8.836,W*1A
$GNRMC,080832.00,A,3737.9914195,N,12704.6584921,E,0.0,,140324,8.8,W,D*1E
$PSSN,HRP,080832.00,140324,111.269,,1.573,0.138,,0.324,32,2,8.836,W*1B
$GNRMC,080833.00,A,3737.9914179,N,12704.6584950,E,0.0,,140324,8.8,W,D*1B
$PSSN,HRP,080833.00,140324,111.270,,1.384,0.139,,0.332,31,2,8.836,W*19
$GNRMC,080834.00,A,3737.9914195,N,12704.6584970,E,0.0,,140324,8.8,W,D*1C
$PSSN,HRP,080834.00,140324,111.301,,1.377,0.138,,0.325,32,2,8.836,W*11
$GNRMC,080835.00,A,3737.9914190,N,12704.6584969,E,0.0,,140324,8.8,W,D*10
$PSSN,HRP,080835.00,140324,111.230,,1.750,0.138,,0.325,32,2,8.836,W*12
$GNRMC,080836.00,A,3737.9914181,N,12704.6584962,E,0.0,,140324,8.8,W,D*18
$PSSN,HRP,080836.00,140324,111.305,,1.579,0.138,,0.326,32,2,8.836,W*1C
$GNRMC,080837.00,A,3737.9914188,N,12704.6584932,E,0.0,,140324,8.8,W,D*15
$PSSN,HRP,080837.00,140324,111.271,,1.698,0.138,,0.325,32,2,8.836,W*10
$GNRMC,080838.00,A,3737.9914212,N,12704.6584909,E,0.0,,140324,8.8,W,D*12
$PSSN,HRP,080838.00,140324,111.314,,1.523,0.139,,0.326,32,2,8.836,W*1C
$GNRMC,080839.00,A,3737.9914206,N,12704.6584918,E,0.0,,140324,8.8,W,D*16
$PSSN,HRP,080839.00,140324,111.286,,1.535,0.138,,0.325,32,2,8.836,W*12
$GNRMC,080840.00,A,3737.9914191,N,12704.6584950,E,0.0,,140324,8.8,W,D*19
$PSSN,HRP,080840.00,140324,111.231,,1.356,0.140,,0.333,31,2,8.836,W*18
$GNRMC,080841.00,A,3737.9914180,N,12704.6584971,E,0.0,,140324,8.8,W,D*1B
$PSSN,HRP,080841.00,140324,111.244,,1.353,0.139,,0.333,32,2,8.836,W*13
$GNRMC,080842.00,A,3737.9914189,N,12704.6584947,E,0.0,,140324,8.8,W,D*14
$PSSN,HRP,080842.00,140324,111.302,,1.449,0.138,,0.323,32,2,8.836,W*1F
$GNRMC,080843.00,A,3737.9914181,N,12704.6584926,E,0.0,,140324,8.8,W,D*1A
$PSSN,HRP,080843.00,140324,111.288,,1.411,0.138,,0.324,32,2,8.836,W*17
$GNRMC,080844.00,A,3737.9914187,N,12704.6584929,E,0.0,,140324,8.8,W,D*14
$PSSN,HRP,080844.00,140324,111.214,,1.623,0.138,,0.323,32,2,8.836,W*11
$GNRMC,080845.00,A,3737.9914191,N,12704.6584973,E,0.0,,140324,8.8,W,D*1D
$PSSN,HRP,080845.00,140324,111.325,,1.115,0.139,,0.332,31,2,8.836,W*13
$GNRMC,080846.00,A,3737.9914195,N,12704.6584967,E,0.0,,140324,8.8,W,D*1F
$PSSN,HRP,080846.00,140324,111.261,,1.302,0.138,,0.323,32,2,8.836,W*17
$GNRMC,080847.00,A,3737.9914206,N,12704.6584951,E,0.0,,140324,8.8,W,D*12
$PSSN,HRP,080847.00,140324,111.331,,1.385,0.139,,0.332,31,2,8.836,W*1F
$GNRMC,080848.00,A,3737.9914192,N,12704.6584936,E,0.0,,140324,8.8,W,D*12
$PSSN,HRP,080848.00,140324,111.235,,1.466,0.137,,0.324,32,2,8.836,W*15
$GNRMC,080849.00,A,3737.9914184,N,12704.6584940,E,0.0,,140324,8.8,W,D*15
$PSSN,HRP,080849.00,140324,111.234,,1.673,0.138,,0.324,32,2,8.836,W*1C
$GNRMC,080850.00,A,3737.9914186,N,12704.6584968,E,0.0,,140324,8.8,W,D*15
$PSSN,HRP,080850.00,140324,111.231,,1.428,0.138,,0.325,32,2,8.836,W*1C
$GNRMC,080851.00,A,3737.9914192,N,12704.6584959,E,0.0,,140324,8.8,W,D*13
$PSSN,HRP,080851.00,140324,111.241,,1.510,0.138,,0.325,32,2,8.836,W*10
$GNRMC,080852.00,A,3737.9914178,N,12704.6584984,E,0.0,,140324,8.8,W,D*14
$PSSN,HRP,080852.00,140324,111.229,,1.493,0.138,,0.324,32,2,8.836,W*16
$GNRMC,080853.00,A,3737.9914196,N,12704.6584971,E,0.0,,140324,8.8,W,D*1F
$PSSN,HRP,080853.00,140324,111.310,,1.448,0.138,,0.325,32,2,8.836,W*1B
$GNRMC,080854.00,A,3737.9914188,N,12704.6584961,E,0.0,,140324,8.8,W,D*16
$PSSN,HRP,080854.00,140324,111.210,,1.523,0.137,,0.324,32,2,8.836,W*1F
$GNRMC,080855.00,A,3737.9914196,N,12704.6584937,E,0.0,,140324,8.8,W,D*1B
$PSSN,HRP,080855.00,140324,111.219,,1.818,0.137,,0.324,32,2,8.836,W*12
$GNRMC,080856.00,A,3737.9914196,N,12704.6584927,E,0.0,,140324,8.8,W,D*19
$PSSN,HRP,080856.00,140324,111.293,,1.502,0.139,,0.333,31,2,8.836,W*1E
$GNRMC,080857.00,A,3737.9914186,N,12704.6584965,E,0.0,,140324,8.8,W,D*1F
$PSSN,HRP,080857.00,140324,111.241,,1.243,0.139,,0.336,32,2,8.836,W*14
$GNRMC,080858.00,A,3737.9914182,N,12704.6584950,E,0.0,,140324,8.8,W,D*12
$PSSN,HRP,080858.00,140324,111.318,,1.652,0.137,,0.313,33,2,8.836,W*1A
$GNRMC,080859.00,A,3737.9914188,N,12704.6584995,E,0.0,,140324,8.8,W,D*10
$PSSN,HRP,080859.00,140324,111.316,,1.435,0.137,,0.314,33,2,8.836,W*11
$GNRMC,080900.00,A,3737.9914180,N,12704.6585013,E,0.0,,140324,8.8,W,D*13
$PSSN,HRP,080900.00,140324,111.192,,1.693,0.137,,0.313,33,2,8.836,W*1B
$GNRMC,080901.00,A,3737.9914194,N,12704.6584987,E,0.0,,140324,8.8,W,D*12
$PSSN,HRP,080901.00,140324,111.300,,1.669,0.136,,0.312,33,2,8.836,W*16
$GNRMC,080902.00,A,3737.9914194,N,12704.6584956,E,0.0,,140324,8.8,W,D*1D
$PSSN,HRP,080902.00,140324,111.255,,1.457,0.136,,0.311,33,2,8.836,W*18
$GNRMC,080903.00,A,3737.9914187,N,12704.6584967,E,0.0,,140324,8.8,W,D*1C
$PSSN,HRP,080903.00,140324,111.272,,1.559,0.136,,0.313,33,2,8.836,W*11
$GNRMC,080904.00,A,3737.9914185,N,12704.6584966,E,0.0,,140324,8.8,W,D*18
$PSSN,HRP,080904.00,140324,111.244,,1.766,0.136,,0.313,33,2,8.836,W*1D
$GNRMC,080905.00,A,3737.9914196,N,12704.6584964,E,0.0,,140324,8.8,W,D*19
$PSSN,HRP,080905.00,140324,111.328,,1.667,0.136,,0.313,33,2,8.836,W*17
$GNRMC,080906.00,A,3737.9914204,N,12704.6584956,E,0.0,,140324,8.8,W,D*13
$PSSN,HRP,080906.00,140324,111.265,,1.749,0.137,,0.312,33,2,8.836,W*11
$GNRMC,080907.00,A,3737.9914211,N,12704.6584959,E,0.0,,140324,8.8,W,D*19
$PSSN,HRP,080907.00,140324,111.256,,1.329,0.137,,0.315,33,2,8.836,W*15
$GNRMC,080908.00,A,3737.9914223,N,12704.6584962,E,0.0,,140324,8.8,W,D*1F
$PSSN,HRP,080908.00,140324,111.209,,1.767,0.136,,0.313,33,2,8.836,W*19
$GNRMC,080909.00,A,3737.9914222,N,12704.6584976,E,0.0,,140324,8.8,W,D*1A
$PSSN,HRP,080909.00,140324,111.224,,1.684,0.136,,0.313,33,2,8.836,W*1B
$GNRMC,080910.00,A,3737.9914195,N,12704.6584963,E,0.0,,140324,8.8,W,D*19
$PSSN,HRP,080910.00,140324,111.117,,1.615,0.137,,0.314,33,2,8.836,W*1E
$GNRMC,080911.00,A,3737.9914190,N,12704.6584965,E,0.0,,140324,8.8,W,D*1B
$PSSN,HRP,080911.00,140324,111.249,,1.307,0.136,,0.314,33,2,8.836,W*10
$GNRMC,080912.00,A,3737.9914189,N,12704.6584981,E,0.0,,140324,8.8,W,D*1A
$PSSN,HRP,080912.00,140324,111.239,,1.634,0.136,,0.313,33,2,8.836,W*16
$GNRMC,080913.00,A,3737.9914195,N,12704.6584946,E,0.0,,140324,8.8,W,D*1D
$PSSN,HRP,080913.00,140324,111.275,,1.297,0.136,,0.313,33,2,8.836,W*12
$GNRMC,080914.00,A,3737.9914195,N,12704.6584942,E,0.0,,140324,8.8,W,D*1E
$PSSN,HRP,080914.00,140324,111.237,,1.661,0.136,,0.312,33,2,8.836,W*1F
$GNRMC,080915.00,A,3737.9914204,N,12704.6584961,E,0.0,,140324,8.8,W,D*15
$PSSN,HRP,080915.00,140324,111.221,,1.846,0.136,,0.313,33,2,8.836,W*13
$GNRMC,080916.00,A,3737.9914184,N,12704.6584973,E,0.0,,140324,8.8,W,D*1E
$PSSN,HRP,080916.00,140324,111.282,,1.273,0.137,,0.314,33,2,8.836,W*13
$GNRMC,080917.00,A,3737.9914189,N,12704.6584973,E,0.0,,140324,8.8,W,D*12
$PSSN,HRP,080917.00,140324,111.226,,1.629,0.137,,0.314,33,2,8.836,W*17
$GNRMC,080918.00,A,3737.9914192,N,12704.6584960,E,0.0,,140324,8.8,W,D*15
$PSSN,HRP,080918.00,140324,111.225,,1.644,0.137,,0.312,33,2,8.836,W*16
$GNRMC,080919.00,A,3737.9914181,N,12704.6584953,E,0.0,,140324,8.8,W,D*16
$PSSN,HRP,080919.00,140324,111.265,,1.755,0.137,,0.314,33,2,8.836,W*14
$GNRMC,080920.00,A,3737.9914182,N,12704.6584951,E,0.0,,140324,8.8,W,D*1D
$PSSN,HRP,080920.00,140324,111.288,,1.511,0.137,,0.312,33,2,8.836,W*19
$GNRMC,080921.00,A,3737.9914175,N,12704.6584966,E,0.0,,140324,8.8,W,D*10
$PSSN,HRP,080921.00,140324,111.280,,1.493,0.137,,0.314,33,2,8.836,W*1D
$GNRMC,080922.00,A,3737.9914181,N,12704.6584964,E,0.0,,140324,8.8,W,D*1A
$PSSN,HRP,080922.00,140324,111.165,,1.874,0.137,,0.313,33,2,8.836,W*14
$GNRMC,080923.00,A,3737.9914180,N,12704.6584993,E,0.0,,140324,8.8,W,D*12
$PSSN,HRP,080923.00,140324,111.229,,1.554,0.138,,0.315,33,2,8.836,W*18
$GNRMC,080924.00,A,3737.9914186,N,12704.6584972,E,0.0,,140324,8.8,W,D*1C
$PSSN,HRP,080924.00,140324,111.262,,1.566,0.137,,0.313,33,2,8.836,W*18
$GNRMC,080925.00,A,3737.9914183,N,12704.6584955,E,0.0,,140324,8.8,W,D*1D
$PSSN,HRP,080925.00,140324,111.232,,1.797,0.137,,0.315,33,2,8.836,W*16
$GNRMC,080926.00,A,3737.9914194,N,12704.6584953,E,0.0,,140324,8.8,W,D*1E
$PSSN,HRP,080926.00,140324,111.288,,1.444,0.137,,0.314,33,2,8.836,W*18
$GNRMC,080927.00,A,3737.9914190,N,12704.6585007,E,0.0,,140324,8.8,W,D*12
$PSSN,HRP,080927.00,140324,111.358,,1.495,0.137,,0.313,33,2,8.836,W*1E
$GNRMC,080928.00,A,3737.9914176,N,12704.6584981,E,0.0,,140324,8.8,W,D*13
$PSSN,HRP,080928.00,140324,111.277,,1.738,0.137,,0.314,33,2,8.836,W*1E
$GNRMC,080929.00,A,3737.9914187,N,12704.6584934,E,0.0,,140324,8.8,W,D*12
$PSSN,HRP,080929.00,140324,111.289,,1.846,0.137,,0.315,33,2,8.836,W*19
$GNRMC,080930.00,A,3737.9914190,N,12704.6584913,E,0.0,,140324,8.8,W,D*19
$PSSN,HRP,080930.00,140324,111.258,,1.527,0.137,,0.315,33,2,8.836,W*17
$GNRMC,080931.00,A,3737.9914204,N,12704.6584904,E,0.0,,140324,8.8,W,D*10
$PSSN,HRP,080931.00,140324,111.347,,2.024,0.140,,0.342,32,2,8.836,W*1F
$GNRMC,080932.00,A,3737.9914196,N,12704.6584927,E,0.0,,140324,8.8,W,D*1A
$PSSN,HRP,080932.00,140324,111.307,,1.706,0.137,,0.314,33,2,8.836,W*1E
$GNRMC,080933.00,A,3737.9914198,N,12704.6584972,E,0.0,,140324,8.8,W,D*15
$PSSN,HRP,080933.00,140324,111.271,,1.571,0.137,,0.314,33,2,8.836,W*1D
$GNRMC,080934.00,A,3737.9914190,N,12704.6585004,E,0.0,,140324,8.8,W,D*13
$PSSN,HRP,080934.00,140324,111.307,,1.619,0.137,,0.313,33,2,8.836,W*10
$GNRMC,080935.00,A,3737.9914188,N,12704.6584999,E,0.0,,140324,8.8,W,D*17
$PSSN,HRP,080935.00,140324,111.246,,1.590,0.137,,0.314,33,2,8.836,W*10
$GNRMC,080936.00,A,3737.9914198,N,12704.6584976,E,0.0,,140324,8.8,W,D*14
$PSSN,HRP,080936.00,140324,111.266,,1.847,0.137,,0.313,33,2,8.836,W*11
$GNRMC,080937.00,A,3737.9914202,N,12704.6584942,E,0.0,,140324,8.8,W,D*12
$PSSN,HRP,080937.00,140324,111.288,,1.504,0.137,,0.314,33,2,8.836,W*1D
$GNRMC,080938.00,A,3737.9914205,N,12704.6584928,E,0.0,,140324,8.8,W,D*16
$PSSN,HRP,080938.00,140324,111.270,,1.663,0.138,,0.315,33,2,8.836,W*19
$GNRMC,080939.00,A,3737.9914201,N,12704.6584942,E,0.0,,140324,8.8,W,D*1F
$PSSN,HRP,080939.00,140324,111.245,,1.605,0.137,,0.314,33,2,8.836,W*10
$GNRMC,080940.00,A,3737.9914202,N,12704.6584976,E,0.0,,140324,8.8,W,D*15
$PSSN,HRP,080940.00,140324,111.296,,1.537,0.137,,0.314,33,2,8.836,W*12
$GNRMC,080941.00,A,3737.9914192,N,12704.6585007,E,0.0,,140324,8.8,W,D*10
$PSSN,HRP,080941.00,140324,111.243,,1.389,0.137,,0.313,33,2,8.836,W*1F
$GNRMC,080942.00,A,3737.9914181,N,12704.6585025,E,0.0,,140324,8.8,W,D*11
$PSSN,HRP,080942.00,140324,111.256,,1.677,0.138,,0.313,33,2,8.836,W*13
$GNRMC,080943.00,A,3737.9914183,N,12704.6585002,E,0.0,,140324,8.8,W,D*17
$PSSN,HRP,080943.00,140324,111.309,,1.808,0.137,,0.314,33,2,8.836,W*17
$GNRMC,080944.00,A,3737.9914169,N,12704.6584957,E,0.0,,140324,8.8,W,D*1C
$PSSN,HRP,080944.00,140324,111.241,,1.543,0.137,,0.314,33,2,8.836,W*1F
$GNRMC,080945.00,A,3737.9914191,N,12704.6584936,E,0.0,,140324,8.8,W,D*1D
$PSSN,HRP,080945.00,140324,111.273,,1.456,0.137,,0.313,33,2,8.836,W*1D
$GNRMC,080946.00,A,3737.9914170,N,12704.6584964,E,0.0,,140324,8.8,W,D*16
$PSSN,HRP,080946.00,140324,111.271,,1.591,0.137,,0.318,32,2,8.836,W*1C
$GNRMC,080947.00,A,3737.9914191,N,12704.6584967,E,0.0,,140324,8.8,W,D*1B
$PSSN,HRP,080947.00,140324,111.267,,1.324,0.137,,0.316,33,2,8.836,W*1D
$GNRMC,080948.00,A,3737.9914187,N,12704.6584993,E,0.0,,140324,8.8,W,D*18
$PSSN,HRP,080948.00,140324,111.245,,1.327,0.139,,0.324,32,2,8.836,W*1F
$GNRMC,080949.00,A,3737.9914187,N,12704.6584994,E,0.0,,140324,8.8,W,D*1E
$PSSN,HRP,080949.00,140324,111.248,,1.369,0.139,,0.323,33,2,8.836,W*1F
$GNRMC,080950.00,A,3737.9914201,N,12704.6584977,E,0.0,,140324,8.8,W,D*16
$PSSN,HRP,080950.00,140324,111.265,,1.282,0.137,,0.313,33,2,8.836,W*11
$GNRMC,080951.00,A,3737.9914186,N,12704.6584991,E,0.0,,140324,8.8,W,D*13
$PSSN,HRP,080951.00,140324,111.229,,1.490,0.137,,0.315,33,2,8.836,W*1B
$GNRMC,080952.00,A,3737.9914194,N,12704.6584962,E,0.0,,140324,8.8,W,D*1F
$PSSN,HRP,080952.00,140324,111.275,,1.500,0.137,,0.316,33,2,8.836,W*1A
$GNRMC,080953.00,A,3737.9914203,N,12704.6584941,E,0.0,,140324,8.8,W,D*12
$PSSN,HRP,080953.00,140324,111.212,,1.468,0.137,,0.314,33,2,8.836,W*17
$GNRMC,080954.00,A,3737.9914210,N,12704.6584951,E,0.0,,140324,8.8,W,D*16
$PSSN,HRP,080954.00,140324,111.272,,1.375,0.137,,0.314,33,2,8.836,W*1D
$GNRMC,080955.00,A,3737.9914202,N,12704.6584982,E,0.0,,140324,8.8,W,D*1A
$PSSN,HRP,080955.00,140324,111.253,,1.648,0.137,,0.316,33,2,8.836,W*16
$GNRMC,080956.00,A,3737.9914185,N,12704.6585009,E,0.0,,140324,8.8,W,D*1E
$PSSN,HRP,080956.00,140324,111.263,,1.449,0.137,,0.315,33,2,8.836,W*16
$GNRMC,080957.00,A,3737.9914190,N,12704.6585001,E,0.0,,140324,8.8,W,D*13
$PSSN,HRP,080957.00,140324,111.222,,1.617,0.137,,0.315,33,2,8.836,W*1B
$GNRMC,080958.00,A,3737.9914184,N,12704.6584984,E,0.0,,140324,8.8,W,D*1C
$PSSN,HRP,080958.00,140324,111.250,,1.427,0.137,,0.317,33,2,8.836,W*12
$GNRMC,080959.00,A,3737.9914198,N,12704.6584942,E,0.0,,140324,8.8,W,D*1A
$PSSN,HRP,080959.00,140324,111.236,,1.532,0.137,,0.316,32,2,8.836,W*16
$GNRMC,081000.00,A,3737.9914201,N,12704.6584947,E,0.0,,140324,8.8,W,D*18
$PSSN,HRP,081000.00,140324,111.180,,1.585,0.138,,0.326,32,2,8.836,W*1C
$GNRMC,081001.00,A,3737.9914203,N,12704.6584979,E,0.0,,140324,8.8,W,D*16
$PSSN,HRP,081001.00,140324,111.250,,1.621,0.138,,0.325,33,2,8.836,W*1C
$GNRMC,081002.00,A,3737.9914185,N,12704.6585009,E,0.0,,140324,8.8,W,D*17
$PSSN,HRP,081002.00,140324,111.266,,1.440,0.138,,0.315,33,2,8.836,W*1C
$GNRMC,081003.00,A,3737.9914168,N,12704.6585004,E,0.0,,140324,8.8,W,D*18
$PSSN,HRP,081003.00,140324,111.253,,1.607,0.138,,0.316,33,2,8.836,W*19
$GNRMC,081004.00,A,3737.9914180,N,12704.6584971,E,0.0,,140324,8.8,W,D*13
$PSSN,HRP,081004.00,140324,111.257,,1.377,0.138,,0.315,33,2,8.836,W*1B
$GNRMC,081005.00,A,3737.9914213,N,12704.6584961,E,0.0,,140324,8.8,W,D*1A
$PSSN,HRP,081005.00,140324,111.274,,1.554,0.139,,0.318,33,2,8.836,W*10
$GNRMC,081006.00,A,3737.9914206,N,12704.6584951,E,0.0,,140324,8.8,W,D*1E
$PSSN,HRP,081006.00,140324,111.281,,1.392,0.138,,0.317,33,2,8.836,W*1B
$GNRMC,081007.00,A,3737.9914183,N,12704.6584973,E,0.0,,140324,8.8,W,D*11
$PSSN,HRP,081007.00,140324,111.201,,1.432,0.139,,0.318,33,2,8.836,W*11
$GNRMC,081008.00,A,3737.9914178,N,12704.6584997,E,0.0,,140324,8.8,W,D*10
$PSSN,HRP,081008.00,140324,111.213,,1.549,0.139,,0.316,33,2,8.836,W*1E
$GNRMC,081009.00,A,3737.9914191,N,12704.6584948,E,0.0,,140324,8.8,W,D*14
$PSSN,HRP,081009.00,140324,111.228,,1.698,0.138,,0.315,33,2,8.836,W*1A
$GNRMC,081010.00,A,3737.9914202,N,12704.6584924,E,0.0,,140324,8.8,W,D*1F
$PSSN,HRP,081010.00,140324,111.255,,1.286,0.140,,0.326,32,2,8.836,W*1D
$GNRMC,081011.00,A,3737.9914197,N,12704.6584923,E,0.0,,140324,8.8,W,D*16
$PSSN,HRP,081011.00,140324,111.262,,1.284,0.139,,0.324,33,2,8.836,W*17
$GNRMC,081012.00,A,3737.9914182,N,12704.6584953,E,0.0,,140324,8.8,W,D*16
$PSSN,HRP,081012.00,140324,111.248,,1.470,0.138,,0.316,33,2,8.836,W*11
$GNRMC,081013.00,A,3737.9914192,N,12704.6584991,E,0.0,,140324,8.8,W,D*18
$PSSN,HRP,081013.00,140324,111.157,,1.643,0.138,,0.317,33,2,8.836,W*1E
$GNRMC,081014.00,A,3737.9914206,N,12704.6584969,E,0.0,,140324,8.8,W,D*16
$PSSN,HRP,081014.00,140324,111.233,,1.468,0.138,,0.317,33,2,8.836,W*13
$GNRMC,081015.00,A,3737.9914235,N,12704.6584932,E,0.0,,140324,8.8,W,D*19
$PSSN,HRP,081015.00,140324,111.153,,1.513,0.138,,0.316,33,2,8.836,W*1B
$GNRMC,081016.00,A,3737.9914235,N,12704.6584904,E,0.0,,140324,8.8,W,D*1F
$PSSN,HRP,081016.00,140324,111.258,,1.565,0.138,,0.316,33,2,8.836,W*11
$GNRMC,081017.00,A,3737.9914204,N,12704.6584939,E,0.0,,140324,8.8,W,D*12
$PSSN,HRP,081017.00,140324,111.257,,1.401,0.138,,0.315,33,2,8.836,W*1F
$GNRMC,081018.00,A,3737.9914183,N,12704.6584984,E,0.0,,140324,8.8,W,D*17
$PSSN,HRP,081018.00,140324,111.269,,1.548,0.138,,0.317,33,2,8.836,W*13
$GNRMC,081019.00,A,3737.9914180,N,12704.6585003,E,0.0,,140324,8.8,W,D*12
$PSSN,HRP,081019.00,140324,111.311,,1.444,0.138,,0.316,33,2,8.836,W*10
$GNRMC,081020.00,A,3737.9914194,N,12704.6584970,E,0.0,,140324,8.8,W,D*11
$PSSN,HRP,081020.00,140324,111.214,,1.654,0.138,,0.316,33,2,8.836,W*1D
$GNRMC,081021.00,A,3737.9914204,N,12704.6584929,E,0.0,,140324,8.8,W,D*16
$PSSN,HRP,081021.00,140324,111.280,,1.488,0.138,,0.315,33,2,8.836,W*11
$GNRMC,081022.00,A,3737.9914197,N,12704.6584918,E,0.0,,140324,8.8,W,D*1E
$PSSN,HRP,081022.00,140324,111.271,,1.604,0.138,,0.316,33,2,8.836,W*19
$GNRMC,081023.00,A,3737.9914199,N,12704.6584939,E,0.0,,140324,8.8,W,D*12
$PSSN,HRP,081023.00,140324,111.235,,1.595,0.138,,0.316,33,2,8.836,W*13
$GNRMC,081024.00,A,3737.9914193,N,12704.6584971,E,0.0,,140324,8.8,W,D*13
$PSSN,HRP,081024.00,140324,111.269,,1.444,0.143,,0.317,32,2,8.836,W*1C
$GNRMC,081025.00,A,3737.9914202,N,12704.6584985,E,0.0,,140324,8.8,W,D*12
$PSSN,HRP,081025.00,140324,111.194,,1.814,0.144,,0.318,33,2,8.836,W*1C
$GNRMC,081026.00,A,3737.9914220,N,12704.6584974,E,0.0,,140324,8.8,W,D*1F
$PSSN,HRP,081026.00,140324,111.270,,1.517,0.137,,0.316,33,2,8.836,W*12
$GNRMC,081027.00,A,3737.9914239,N,12704.6584980,E,0.0,,140324,8.8,W,D*1D
$PSSN,HRP,081027.00,140324,111.279,,1.464,0.138,,0.318,33,2,8.836,W*1E
$GNRMC,081028.00,A,3737.9914217,N,12704.6584986,E,0.0,,140324,8.8,W,D*18
$PSSN,HRP,081028.00,140324,111.310,,1.386,0.138,,0.319,33,2,8.836,W*15
$GNRMC,081029.00,A,3737.9914211,N,12704.6584976,E,0.0,,140324,8.8,W,D*10
$PSSN,HRP,081029.00,140324,111.267,,1.639,0.139,,0.319,33,2,8.836,W*15
$GNRMC,081030.00,A,3737.9914200,N,12704.6584951,E,0.0,,140324,8.8,W,D*1D
$PSSN,HRP,081030.00,140324,111.275,,1.442,0.139,,0.320,33,2,8.836,W*1A
$GNRMC,081031.00,A,3737.9914209,N,12704.6584959,E,0.0,,140324,8.8,W,D*1D
$PSSN,HRP,081031.00,140324,111.215,,1.495,0.146,,0.323,32,2,8.836,W*1D
$GNRMC,081032.00,A,3737.9914211,N,12704.6584966,E,0.0,,140324,8.8,W,D*1B
$PSSN,HRP,081032.00,140324,111.232,,1.601,0.139,,0.319,33,2,8.836,W*14
$GNRMC,081033.00,A,3737.9914208,N,12704.6584981,E,0.0,,140324,8.8,W,D*1B
$PSSN,HRP,081033.00,140324,111.230,,1.659,0.139,,0.319,33,2,8.836,W*1A
$GNRMC,081034.00,A,3737.9914222,N,12704.6584960,E,0.0,,140324,8.8,W,D*1B
$PSSN,HRP,081034.00,140324,111.223,,1.469,0.144,,0.317,32,2,8.836,W*1B
$GNRMC,081035.00,A,3737.9914213,N,12704.6584947,E,0.0,,140324,8.8,W,D*1D
$PSSN,HRP,081035.00,140324,111.252,,1.603,0.144,,0.318,33,2,8.836,W*1C
$GNRMC,081036.00,A,3737.9914228,N,12704.6584959,E,0.0,,140324,8.8,W,D*19
$PSSN,HRP,081036.00,140324,111.306,,1.805,0.138,,0.317,33,2,8.836,W*13
$GNRMC,081037.00,A,3737.9914222,N,12704.6584951,E,0.0,,140324,8.8,W,D*1A
$PSSN,HRP,081037.00,140324,111.285,,1.790,0.139,,0.317,33,2,8.836,W*1A
$GNRMC,081038.00,A,3737.9914223,N,12704.6584956,E,0.0,,140324,8.8,W,D*13
$PSSN,HRP,081038.00,140324,111.275,,1.534,0.144,,0.317,32,2,8.836,W*1D
$GNRMC,081039.00,A,3737.9914214,N,12704.6584957,E,0.0,,140324,8.8,W,D*17
$PSSN,HRP,081039.00,140324,111.219,,1.588,0.144,,0.318,33,2,8.836,W*1F
$GNRMC,081040.00,A,3737.9914214,N,12704.6584951,E,0.0,,140324,8.8,W,D*1F
$PSSN,HRP,081040.00,140324,111.228,,1.677,0.139,,0.318,33,2,8.836,W*1A
$GNRMC,081041.00,A,3737.9914228,N,12704.6584952,E,0.0,,140324,8.8,W,D*12
$PSSN,HRP,081041.00,140324,111.238,,1.679,0.144,,0.317,32,2,8.836,W*10
$GNRMC,081042.00,A,3737.9914225,N,12704.6584965,E,0.0,,140324,8.8,W,D*18
$PSSN,HRP,081042.00,140324,111.206,,1.491,0.139,,0.318,33,2,8.836,W*1E
$GNRMC,081043.00,A,3737.9914229,N,12704.6584952,E,0.0,,140324,8.8,W,D*11
$PSSN,HRP,081043.00,140324,111.168,,1.758,0.139,,0.318,33,2,8.836,W*12
$GNRMC,081044.00,A,3737.9914236,N,12704.6584954,E,0.0,,140324,8.8,W,D*1E
$PSSN,HRP,081044.00,140324,111.252,,1.623,0.144,,0.320,32,2,8.836,W*12
$GNRMC,081045.00,A,3737.9914219,N,12704.6584948,E,0.0,,140324,8.8,W,D*1F
$PSSN,HRP,081045.00,140324,111.168,,1.669,0.145,,0.320,33,2,8.836,W*17
$GNRMC,081046.00,A,3737.9914224,N,12704.6584973,E,0.0,,140324,8.8,W,D*1A
$PSSN,HRP,081046.00,140324,111.173,,1.451,0.139,,0.319,33,2,8.836,W*16
$GNRMC,081047.00,A,3737.9914224,N,12704.6584994,E,0.0,,140324,8.8,W,D*12
$PSSN,HRP,081047.00,140324,111.274,,1.558,0.139,,0.319,33,2,8.836,W*1B
$GNRMC,081048.00,A,3737.9914221,N,12704.6584981,E,0.0,,140324,8.8,W,D*1C
$PSSN,HRP,081048.00,140324,111.208,,1.686,0.144,,0.317,32,2,8.836,W*1A
$GNRMC,081049.00,A,3737.9914210,N,12704.6584969,E,0.0,,140324,8.8,W,D*19
$PSSN,HRP,081049.00,140324,111.072,,1.617,0.144,,0.318,33,2,8.836,W*12
$GNRMC,081050.00,A,3737.9914226,N,12704.6584945,E,0.0,,140324,8.8,W,D*1A
$PSSN,HRP,081050.00,140324,111.119,,1.693,0.139,,0.322,33,2,8.836,W*19
$GNRMC,081051.00,A,3737.9914237,N,12704.6584913,E,0.0,,140324,8.8,W,D*18
$PSSN,HRP,081051.00,140324,111.145,,1.652,0.139,,0.317,33,2,8.836,W*1A
$GNRMC,081052.00,A,3737.9914220,N,12704.6584924,E,0.0,,140324,8.8,W,D*19
$PSSN,HRP,081052.00,140324,111.119,,1.187,0.144,,0.320,32,2,8.836,W*10
$GNRMC,081053.00,A,3737.9914219,N,12704.6584961,E,0.0,,140324,8.8,W,D*13
$PSSN,HRP,081053.00,140324,111.166,,1.337,0.145,,0.322,32,2,8.836,W*13
$GNRMC,081054.00,A,3737.9914219,N,12704.6584980,E,0.0,,140324,8.8,W,D*1B
$PSSN,HRP,081054.00,140324,111.119,,1.597,0.144,,0.318,32,2,8.836,W*18
$GNRMC,081055.00,A,3737.9914224,N,12704.6584966,E,0.0,,140324,8.8,W,D*1C
$PSSN,HRP,081055.00,140324,111.161,,1.407,0.145,,0.320,33,2,8.836,W*15
$GNRMC,081056.00,A,3737.9914227,N,12704.6584936,E,0.0,,140324,8.8,W,D*19
$PSSN,HRP,081056.00,140324,111.185,,1.649,0.139,,0.319,33,2,8.836,W*15
$GNRMC,081057.00,A,3737.9914213,N,12704.6584943,E,0.0,,140324,8.8,W,D*1D
$PSSN,HRP,081057.00,140324,111.197,,1.378,0.144,,0.319,32,2,8.836,W*1B
$GNRMC,081058.00,A,3737.9914232,N,12704.6584940,E,0.0,,140324,8.8,W,D*12
$PSSN,HRP,081058.00,140324,111.172,,1.370,0.144,,0.319,32,2,8.836,W*17
$GNRMC,081059.00,A,3737.9914221,N,12704.6584969,E,0.0,,140324,8.8,W,D*1A
$PSSN,HRP,081059.00,140324,111.110,,1.747,0.145,,0.322,32,2,8.836,W*1B
$GNRMC,081100.00,A,3737.9914206,N,12704.6584997,E,0.0,,140324,8.8,W,D*13
$PSSN,HRP,081100.00,140324,111.203,,1.771,0.144,,0.320,32,2,8.836,W*11
$GNRMC,081101.00,A,3737.9914202,N,12704.6584982,E,0.0,,140324,8.8,W,D*12
$PSSN,HRP,081101.00,140324,111.209,,1.527,0.145,,0.324,32,2,8.836,W*1E
$GNRMC,081102.00,A,3737.9914211,N,12704.6584962,E,0.0,,140324,8.8,W,D*1D
$PSSN,HRP,081102.00,140324,111.127,,1.513,0.145,,0.322,32,2,8.836,W*13
$GNRMC,081103.00,A,3737.9914230,N,12704.6584953,E,0.0,,140324,8.8,W,D*1D
$PSSN,HRP,081103.00,140324,111.169,,1.562,0.145,,0.323,33,2,8.836,W*1E
$GNRMC,081104.00,A,3737.9914222,N,12704.6584948,E,0.0,,140324,8.8,W,D*13
$PSSN,HRP,081104.00,140324,111.175,,1.533,0.145,,0.322,32,2,8.836,W*10
$GNRMC,081105.00,A,3737.9914212,N,12704.6584945,E,0.0,,140324,8.8,W,D*1C
$PSSN,HRP,081105.00,140324,111.194,,1.504,0.145,,0.323,32,2,8.836,W*1B
$GNRMC,081106.00,A,3737.9914213,N,12704.6584979,E,0.0,,140324,8.8,W,D*11
$PSSN,HRP,081106.00,140324,111.175,,1.702,0.145,,0.322,32,2,8.836,W*12
$GNRMC,081107.00,A,3737.9914192,N,12704.6585003,E,0.0,,140324,8.8,W,D*1F
$PSSN,HRP,081107.00,140324,111.144,,1.532,0.145,,0.323,32,2,8.836,W*11
$GNRMC,081108.00,A,3737.9914207,N,12704.6584983,E,0.0,,140324,8.8,W,D*1F
$PSSN,HRP,081108.00,140324,111.190,,1.430,0.145,,0.323,32,2,8.836,W*14
$GNRMC,081109.00,A,3737.9914220,N,12704.6584981,E,0.0,,140324,8.8,W,D*19
$PSSN,HRP,081109.00,140324,111.159,,1.745,0.146,,0.325,33,2,8.836,W*15
$GNRMC,081110.00,A,3737.9914241,N,12704.6584959,E,0.0,,140324,8.8,W,D*13
$PSSN,HRP,081110.00,140324,111.207,,1.497,0.145,,0.323,32,2,8.836,W*1D
$GNRMC,081111.00,A,3737.9914219,N,12704.6584957,E,0.0,,140324,8.8,W,D*11
$PSSN,HRP,081111.00,140324,111.167,,1.663,0.145,,0.322,33,2,8.836,W*10
$GNRMC,081112.00,A,3737.9914195,N,12704.6584967,E,0.0,,140324,8.8,W,D*16
$PSSN,HRP,081112.00,140324,111.256,,1.708,0.141,,0.328,33,2,8.836,W*10
$GNRMC,081113.00,A,3737.9914200,N,12704.6584961,E,0.0,,140324,8.8,W,D*1E
$PSSN,HRP,081113.00,140324,111.295,,1.455,0.140,,0.325,33,2,8.836,W*19
$GNRMC,081114.00,A,3737.9914205,N,12704.6584952,E,0.0,,140324,8.8,W,D*1C
$PSSN,HRP,081114.00,140324,111.157,,1.499,0.145,,0.320,32,2,8.836,W*12
$GNRMC,081115.00,A,3737.9914209,N,12704.6584977,E,0.0,,140324,8.8,W,D*16
$PSSN,HRP,081115.00,140324,111.133,,1.633,0.145,,0.321,32,2,8.836,W*12
$GNRMC,081116.00,A,3737.9914218,N,12704.6584987,E,0.0,,140324,8.8,W,D*1A
$PSSN,HRP,081116.00,140324,111.144,,1.526,0.145,,0.319,32,2,8.836,W*1D
$GNRMC,081117.00,A,3737.9914207,N,12704.6584982,E,0.0,,140324,8.8,W,D*10
$PSSN,HRP,081117.00,140324,111.164,,1.408,0.146,,0.321,33,2,8.836,W*1A
$GNRMC,081118.00,A,3737.9914200,N,12704.6584955,E,0.0,,140324,8.8,W,D*12
$PSSN,HRP,081118.00,140324,111.183,,1.528,0.140,,0.320,33,2,8.836,W*18
$GNRMC,081119.00,A,3737.9914211,N,12704.6584932,E,0.0,,140324,8.8,W,D*12
$PSSN,HRP,081119.00,140324,111.150,,1.735,0.145,,0.321,32,2,8.836,W*1C
$GNRMC,081120.00,A,3737.9914221,N,12704.6584939,E,0.0,,140324,8.8,W,D*10
$PSSN,HRP,081120.00,140324,111.128,,1.505,0.145,,0.321,32,2,8.836,W*18
$GNRMC,081121.00,A,3737.9914215,N,12704.6584954,E,0.0,,140324,8.8,W,D*1D
$PSSN,HRP,081121.00,140324,111.147,,1.463,0.145,,0.319,32,2,8.836,W*1A
$GNRMC,081122.00,A,3737.9914196,N,12704.6584957,E,0.0,,140324,8.8,W,D*15
$PSSN,HRP,081122.00,140324,111.178,,1.396,0.145,,0.322,32,2,8.836,W*10
$GNRMC,081123.00,A,3737.9914209,N,12704.6584944,E,0.0,,140324,8.8,W,D*13
$PSSN,HRP,081123.00,140324,111.244,,1.320,0.145,,0.323,32,2,8.836,W*11
$GNRMC,081124.00,A,3737.9914224,N,12704.6584947,E,0.0,,140324,8.8,W,D*18
$PSSN,HRP,081124.00,140324,111.143,,1.436,0.145,,0.321,32,2,8.836,W*10
$GNRMC,081125.00,A,3737.9914220,N,12704.6584955,E,0.0,,140324,8.8,W,D*1E
$PSSN,HRP,081125.00,140324,111.207,,1.444,0.145,,0.322,32,2,8.836,W*14
$GNRMC,081126.00,A,3737.9914221,N,12704.6584948,E,0.0,,140324,8.8,W,D*10
$PSSN,HRP,081126.00,140324,111.240,,1.428,0.140,,0.322,33,2,8.836,W*1A
$GNRMC,081127.00,A,3737.9914209,N,12704.6584972,E,0.0,,140324,8.8,W,D*12
$PSSN,HRP,081127.00,140324,111.213,,1.648,0.145,,0.322,32,2,8.836,W*1D
$GNRMC,081128.00,A,3737.9914204,N,12704.6584959,E,0.0,,140324,8.8,W,D*19
$PSSN,HRP,081128.00,140324,111.189,,1.296,0.139,,0.321,33,2,8.836,W*1C
$GNRMC,081129.00,A,3737.9914210,N,12704.6584952,E,0.0,,140324,8.8,W,D*16
$PSSN,HRP,081129.00,140324,111.250,,1.421,0.145,,0.322,32,2,8.836,W*19
$GNRMC,081130.00,A,3737.9914200,N,12704.6584961,E,0.0,,140324,8.8,W,D*1F
$PSSN,HRP,081130.00,140324,111.240,,1.464,0.139,,0.321,33,2,8.836,W*18
$GNRMC,081131.00,A,3737.9914197,N,12704.6584955,E,0.0,,140324,8.8,W,D*14
$PSSN,HRP,081131.00,140324,111.213,,1.427,0.145,,0.323,32,2,8.836,W*10
$GNRMC,081132.00,A,3737.9914204,N,12704.6584944,E,0.0,,140324,8.8,W,D*1E
$PSSN,HRP,081132.00,140324,111.261,,1.454,0.139,,0.322,33,2,8.836,W*19
$GNRMC,081133.00,A,3737.9914224,N,12704.6584954,E,0.0,,140324,8.8,W,D*1C
$PSSN,HRP,081133.00,140324,111.177,,1.626,0.145,,0.322,32,2,8.836,W*11
$GNRMC,081134.00,A,3737.9914225,N,12704.6584944,E,0.0,,140324,8.8,W,D*1B
$PSSN,HRP,081134.00,140324,111.250,,1.508,0.140,,0.323,33,2,8.836,W*1A
$GNRMC,081135.00,A,3737.9914228,N,12704.6584954,E,0.0,,140324,8.8,W,D*16
$PSSN,HRP,081135.00,140324,111.255,,1.566,0.145,,0.323,32,2,8.836,W*12
$GNRMC,081136.00,A,3737.9914217,N,12704.6584934,E,0.0,,140324,8.8,W,D*1F
$PSSN,HRP,081136.00,140324,111.292,,1.466,0.139,,0.323,33,2,8.836,W*11
$GNRMC,081137.00,A,3737.9914214,N,12704.6584958,E,0.0,,140324,8.8,W,D*17
$PSSN,HRP,081137.00,140324,111.229,,1.549,0.146,,0.324,32,2,8.836,W*12
$GNRMC,081138.00,A,3737.9914199,N,12704.6584963,E,0.0,,140324,8.8,W,D*16
$PSSN,HRP,081138.00,140324,111.260,,1.470,0.140,,0.324,33,2,8.836,W*1C
$GNRMC,081139.00,A,3737.9914202,N,12704.6584958,E,0.0,,140324,8.8,W,D*1E
$PSSN,HRP,081139.00,140324,111.223,,1.585,0.146,,0.324,32,2,8.836,W*16
$GNRMC,081140.00,A,3737.9914213,N,12704.6584963,E,0.0,,140324,8.8,W,D*18
$PSSN,HRP,081140.00,140324,111.305,,1.422,0.140,,0.326,33,2,8.836,W*14
$GNRMC,081141.00,A,3737.9914230,N,12704.6584947,E,0.0,,140324,8.8,W,D*1E
$PSSN,HRP,081141.00,140324,111.221,,1.634,0.145,,0.324,32,2,8.836,W*11
$GNRMC,081142.00,A,3737.9914228,N,12704.6584953,E,0.0,,140324,8.8,W,D*11
$PSSN,HRP,081142.00,140324,111.272,,1.399,0.140,,0.325,33,2,8.836,W*13
$GNRMC,081143.00,A,3737.9914233,N,12704.6584942,E,0.0,,140324,8.8,W,D*1A
$PSSN,HRP,081143.00,140324,111.209,,1.609,0.145,,0.324,32,2,8.836,W*17
$GNRMC,081144.00,A,3737.9914227,N,12704.6584920,E,0.0,,140324,8.8,W,D*1C
$PSSN,HRP,081144.00,140324,111.287,,1.624,0.139,,0.323,33,2,8.836,W*14
$GNRMC,081145.00,A,3737.9914205,N,12704.6584916,E,0.0,,140324,8.8,W,D*18
$PSSN,HRP,081145.00,140324,111.123,,1.494,0.146,,0.325,31,2,8.836,W*1D
$GNRMC,081146.00,A,3737.9914232,N,12704.6584947,E,0.0,,140324,8.8,W,D*1B
$PSSN,HRP,081146.00,140324,111.020,,1.446,0.160,,0.368,28,2,8.836,W*16
$GNRMC,081147.00,A,3737.9914129,N,12704.6584833,E,0.0,,140324,8.8,W,D*11
$PSSN,HRP,081147.00,140324,110.782,,1.399,0.184,,0.380,27,2,8.836,W*1F
$GNRMC,081148.00,A,3737.9914185,N,12704.6584904,E,0.0,,140324,8.8,W,D*1D
$PSSN,HRP,081148.00,140324,111.045,,1.414,0.164,,0.362,25,2,8.836,W*1F
$GNRMC,081149.00,A,3737.9914132,N,12704.6584928,E,0.0,,140324,8.8,W,D*1E
$PSSN,HRP,081149.00,140324,110.883,,1.239,0.167,,0.363,30,2,8.836,W*12
$GNRMC,081150.00,A,3737.9914234,N,12704.6584912,E,0.1,,140324,8.8,W,D*1B
$PSSN,HRP,081150.00,140324,110.943,,0.553,0.187,,0.424,26,2,8.836,W*10
$GNRMC,081151.00,A,3737.9914104,N,12704.6585002,E,0.0,,140324,8.8,W,D*12
$PSSN,HRP,081151.00,140324,110.708,,0.047,0.186,,0.462,28,2,8.836,W*1D
$GNRMC,081152.00,A,3737.9914069,N,12704.6585146,E,0.1,,140324,8.8,W,D*1B
$PSSN,HRP,081152.00,140324,110.997,,-2.687,0.206,,0.469,29,2,8.836,W*32
$GNRMC,081153.00,A,3737.9914052,N,12704.6585243,E,0.0,,140324,8.8,W,D*15
$PSSN,HRP,081153.00,140324,110.892,,-6.389,0.185,,0.426,29,2,8.836,W*3B
$GNRMC,081154.00,A,3737.9914033,N,12704.6585455,E,0.0,,140324,8.8,W,D*14
$PSSN,HRP,081154.00,140324,111.057,,-7.875,0.200,,0.468,30,2,8.836,W*39
$GNRMC,081155.00,A,3737.9914042,N,12704.6585288,E,0.0,,140324,8.8,W,D*15
$PSSN,HRP,081155.00,140324,110.918,,-4.718,0.180,,0.437,28,2,8.836,W*34
$GNRMC,081156.00,A,3737.9914060,N,12704.6585230,E,0.1,,140324,8.8,W,D*14
$PSSN,HRP,081156.00,140324,110.790,,-4.297,0.175,,0.424,31,2,8.836,W*3B
$GNRMC,081157.00,A,3737.9913861,N,12704.6585502,E,0.1,,140324,8.8,W,D*1D
$PSSN,HRP,081157.00,140324,110.160,,-10.539,0.186,,0.421,30,2,8.836,W*0D
$GNRMC,081158.00,A,3737.9913923,N,12704.6585338,E,0.1,,140324,8.8,W,D*1A
$PSSN,HRP,081158.00,140324,109.748,,-5.748,0.179,,0.409,32,2,8.836,W*3E
$GNRMC,081159.00,A,3737.9914020,N,12704.6585181,E,0.1,,140324,8.8,W,D*16
$PSSN,HRP,081159.00,140324,110.116,,-1.512,0.179,,0.424,31,2,8.836,W*3F
$GNRMC,081200.00,A,3737.9914065,N,12704.6585027,E,0.0,,140324,8.8,W,D*14
$PSSN,HRP,081200.00,140324,110.011,,1.001,0.165,,0.391,28,2,8.836,W*10
$GNRMC,081201.00,A,3737.9914044,N,12704.6585114,E,0.1,,140324,8.8,W,D*16
$PSSN,HRP,081201.00,140324,110.052,,0.638,0.170,,0.428,26,2,8.836,W*14
$GNRMC,081202.00,A,3737.9913954,N,12704.6585396,E,0.1,,140324,8.8,W,D*12
$PSSN,HRP,081202.00,140324,110.407,,-6.899,0.182,,0.462,28,2,8.836,W*30
$GNRMC,081203.00,A,3737.9914039,N,12704.6585364,E,0.1,,140324,8.8,W,D*1B
$PSSN,HRP,081203.00,140324,110.418,,-4.722,0.178,,0.434,30,2,8.836,W*3D
$GNRMC,081204.00,A,3737.9914167,N,12704.6585155,E,0.1,,140324,8.8,W,D*16
$PSSN,HRP,081204.00,140324,110.768,,0.334,0.169,,0.407,31,2,8.836,W*15
$GNRMC,081205.00,A,3737.9913957,N,12704.6585566,E,0.2,,140324,8.8,W,D*1C
$PSSN,HRP,081205.00,140324,110.844,,-9.453,0.182,,0.412,29,2,8.836,W*3F
$GNRMC,081206.00,A,3737.9914236,N,12704.6585285,E,0.2,,140324,8.8,W,D*1E
$PSSN,HRP,081206.00,140324,111.879,,0.813,0.179,,0.417,31,2,8.836,W*17
$GNRMC,081207.00,A,3737.9914156,N,12704.6585073,E,0.0,,140324,8.8,W,D*13
$PSSN,HRP,081207.00,140324,111.182,,2.011,0.175,,0.449,27,2,8.836,W*13
$GNRMC,081208.00,A,3737.9914192,N,12704.6585207,E,0.1,,140324,8.8,W,D*14
$PSSN,HRP,081208.00,140324,111.727,,1.630,0.189,,0.424,28,2,8.836,W*14
$GNRMC,081209.00,A,3737.9914262,N,12704.6585113,E,0.0,,140324,8.8,W,D*1E
$PSSN,HRP,081209.00,140324,111.899,,1.005,0.218,,0.479,25,2,8.836,W*11
$GNRMC,081210.00,A,3737.9914335,N,12704.6585111,E,0.0,,140324,8.8,W,D*17
$PSSN,HRP,081210.00,140324,111.883,,0.962,0.225,,0.544,30,2,8.836,W*1E
$GNRMC,081211.00,A,3737.9914251,N,12704.6585035,E,0.0,,140324,8.8,W,D*12
$PSSN,HRP,081211.00,140324,111.372,,1.237,0.238,,0.590,28,2,8.836,W*1C
$GNRMC,081212.00,A,3737.9914225,N,12704.6585073,E,0.0,,140324,8.8,W,D*10
$PSSN,HRP,081212.00,140324,110.977,,0.667,0.197,,0.492,28,2,8.836,W*14
$GNRMC,081213.00,A,3737.9914230,N,12704.6585099,E,0.0,,140324,8.8,W,D*11
$PSSN,HRP,081213.00,140324,111.270,,1.170,0.211,,0.491,27,2,8.836,W*19
$GNRMC,081214.00,A,3737.9914226,N,12704.6585128,E,0.0,,140324,8.8,W,D*1A
$PSSN,HRP,081214.00,140324,111.137,,0.936,0.244,,0.517,28,2,8.836,W*15
$GNRMC,081215.00,A,3737.9914239,N,12704.6585106,E,0.0,,140324,8.8,W,D*19
$PSSN,HRP,081215.00,140324,111.410,,0.860,0.288,,0.641,29,2,8.836,W*17
$GNRMC,081216.00,A,3737.9914235,N,12704.6585076,E,0.0,,140324,8.8,W,D*10
$PSSN,HRP,081216.00,140324,111.538,,0.620,0.277,,0.613,26,2,8.836,W*1D
$GNRMC,081217.00,A,3737.9914241,N,12704.6585041,E,0.0,,140324,8.8,W,D*16
$PSSN,HRP,081217.00,140324,111.316,,0.647,0.283,,0.583,25,2,8.836,W*15
$GNRMC,081218.00,A,3737.9914224,N,12704.6585039,E,0.0,,140324,8.8,W,D*15
$PSSN,HRP,081218.00,140324,111.053,,0.507,0.237,,0.509,28,2,8.836,W*1F
$GNRMC,081219.00,A,3737.9914177,N,12704.6585025,E,0.1,,140324,8.8,W,D*1D
$PSSN,HRP,081219.00,140324,110.916,,0.450,0.220,,0.476,29,2,8.836,W*1A
$GNRMC,081220.00,A,3737.9914243,N,12704.6585126,E,0.0,,140324,8.8,W,D*10
$PSSN,HRP,081220.00,140324,111.219,,0.329,0.283,,0.567,25,2,8.836,W*18
$GNRMC,081221.00,A,3737.9914157,N,12704.6585164,E,0.0,,140324,8.8,W,D*11
$PSSN,HRP,081221.00,140324,110.958,,1.005,0.245,,0.535,30,2,8.836,W*13
$GNRMC,081222.00,A,3737.9914263,N,12704.6585117,E,0.1,,140324,8.8,W,D*13
$PSSN,HRP,081222.00,140324,111.176,,1.228,0.233,,0.498,27,2,8.836,W*19
$GNRMC,081223.00,A,3737.9914293,N,12704.6585103,E,0.0,,140324,8.8,W,D*19
$PSSN,HRP,081223.00,140324,111.053,,1.270,0.224,,0.497,30,2,8.836,W*1C
$GNRMC,081224.00,A,3737.9914273,N,12704.6585094,E,0.0,,140324,8.8,W,D*1F
$PSSN,HRP,081224.00,140324,111.034,,1.326,0.213,,0.479,31,2,8.836,W*1D
$GNRMC,081225.00,A,3737.9914259,N,12704.6585098,E,0.0,,140324,8.8,W,D*1A
$PSSN,HRP,081225.00,140324,110.872,,1.521,0.205,,0.454,30,2,8.836,W*1F
$GNRMC,081226.00,A,3737.9914149,N,12704.6585172,E,0.0,,140324,8.8,W,D*1E
$PSSN,HRP,081226.00,140324,110.838,,1.330,0.201,,0.452,30,2,8.836,W*16
$GNRMC,081227.00,A,3737.9914125,N,12704.6585153,E,0.0,,140324,8.8,W,D*16
$PSSN,HRP,081227.00,140324,110.982,,1.301,0.194,,0.439,29,2,8.836,W*1F
$GNRMC,081228.00,A,3737.9914133,N,12704.6585155,E,0.0,,140324,8.8,W,D*18
$PSSN,HRP,081228.00,140324,110.921,,1.419,0.191,,0.442,30,2,8.836,W*16
$GNRMC,081229.00,A,3737.9914153,N,12704.6585118,E,0.0,,140324,8.8,W,D*16
$PSSN,HRP,081229.00,140324,110.669,,0.941,0.187,,0.436,30,2,8.836,W*11
$GNRMC,081230.00,A,3737.9914157,N,12704.6585121,E,0.0,,140324,8.8,W,D*10
$PSSN,HRP,081230.00,140324,110.677,,0.835,0.184,,0.422,28,2,8.836,W*1B
$GNRMC,081231.00,A,3737.9914164,N,12704.6585119,E,0.0,,140324,8.8,W,D*1A
$PSSN,HRP,081231.00,140324,110.728,,0.297,0.185,,0.424,29,2,8.836,W*15
$GNRMC,081232.00,A,3737.9914140,N,12704.6585066,E,0.1,,140324,8.8,W,D*17
$PSSN,HRP,081232.00,140324,110.579,,0.675,0.192,,0.419,29,2,8.836,W*10
$GNRMC,081233.00,A,3737.9914300,N,12704.6585035,E,0.1,,140324,8.8,W,D*16
$PSSN,HRP,081233.00,140324,111.070,,0.911,0.205,,0.401,26,2,8.836,W*1A
$GNRMC,081234.00,A,3737.9914287,N,12704.6585067,E,0.0,,140324,8.8,W,D*19
$PSSN,HRP,081234.00,140324,111.383,,0.265,0.226,,0.519,30,2,8.836,W*14
$GNRMC,081235.00,A,3737.9914279,N,12704.6584983,E,0.1,,140324,8.8,W,D*1A
$PSSN,HRP,081235.00,140324,111.190,,0.214,0.217,,0.482,29,2,8.836,W*1A
$GNRMC,081236.00,A,3737.9914180,N,12704.6585070,E,0.3,,140324,8.8,W,D*1A
$PSSN,HRP,081236.00,140324,110.284,,0.474,0.199,,0.386,26,2,8.836,W*17
$GNRMC,081237.00,A,3737.9914152,N,12704.6585286,E,0.0,,140324,8.8,W,D*1C
$PSSN,HRP,081237.00,140324,,,,,,,00,0,,E*2C
$GNRMC,081238.00,A,3737.9913938,N,12704.6584973,E,0.5,,140324,8.8,W,D*15
$PSSN,HRP,081238.00,140324,,,,,,,00,0,,E*23
$GNRMC,081239.00,A,3737.9913844,N,12704.6585147,E,0.0,,140324,8.8,W,D*15
$PSSN,HRP,081239.00,140324,,,,,,,00,0,,E*22
$GNRMC,081240.00,A,3737.9914000,N,12704.6585136,E,0.1,,140324,8.8,W,D*13
$PSSN,HRP,081240.00,140324,,,,,,,00,0,,E*2C
$GNRMC,081241.00,A,3737.9916175,N,12704.6587575,E,0.2,,140324,8.8,W,D*11
$PSSN,HRP,081241.00,140324,,,,,,,00,0,,E*2D
$GNRMC,081242.00,A,3737.9914128,N,12704.6585106,E,0.1,,140324,8.8,W,D*19
$PSSN,HRP,081242.00,140324,,,,,,,00,0,,E*2E
$GNRMC,081243.00,A,3737.9914155,N,12704.6585048,E,0.1,,140324,8.8,W,D*19
$PSSN,HRP,081243.00,140324,,,,,,,00,0,,E*2F
$GNRMC,081244.00,A,3737.9914141,N,12704.6585009,E,0.0,,140324,8.8,W,D*1F
$PSSN,HRP,081244.00,140324,,,,,,,00,0,,E*28
$GNRMC,081245.00,A,3737.9914115,N,12704.6585113,E,0.0,,140324,8.8,W,D*15
$PSSN,HRP,081245.00,140324,111.141,,0.577,0.165,,0.466,22,2,8.836,W*14
$GNRMC,081246.00,A,3737.9914060,N,12704.6585141,E,0.0,,140324,8.8,W,D*12
$PSSN,HRP,081246.00,140324,111.407,,0.657,0.182,,0.471,23,2,8.836,W*1F
$GNRMC,081247.00,A,3737.9914136,N,12704.6585122,E,0.1,,140324,8.8,W,D*15
$PSSN,HRP,081247.00,140324,111.589,,0.774,0.205,,0.522,21,2,8.836,W*10
$GNRMC,081248.00,A,3737.9914124,N,12704.6585120,E,0.0,,140324,8.8,W,D*1A
$PSSN,HRP,081248.00,140324,111.794,,1.201,0.192,,0.587,25,2,8.836,W*11
$GNRMC,081249.00,A,3737.9914138,N,12704.6585095,E,0.0,,140324,8.8,W,D*19
$PSSN,HRP,081249.00,140324,111.588,,1.359,0.165,,0.457,25,2,8.836,W*17
$GNRMC,081250.00,A,3737.9914237,N,12704.6584991,E,0.0,,140324,8.8,W,D*11
$PSSN,HRP,081250.00,140324,111.313,,1.263,0.172,,0.445,25,2,8.836,W*16
$GNRMC,081251.00,A,3737.9914244,N,12704.6584969,E,0.0,,140324,8.8,W,D*13
$PSSN,HRP,081251.00,140324,111.350,,1.669,0.160,,0.441,26,2,8.836,W*1A
$GNRMC,081252.00,A,3737.9914155,N,12704.6584998,E,0.1,,140324,8.8,W,D*1C
$PSSN,HRP,081252.00,140324,111.078,,2.205,0.164,,0.443,27,2,8.836,W*1A
$GNRMC,081253.00,A,3737.9914144,N,12704.6585046,E,0.0,,140324,8.8,W,D*17
$PSSN,HRP,081253.00,140324,111.513,,2.116,0.175,,0.425,28,2,8.836,W*1D
$GNRMC,081254.00,A,3737.9914134,N,12704.6585047,E,0.0,,140324,8.8,W,D*16
$PSSN,HRP,081254.00,140324,111.196,,1.479,0.153,,0.360,31,2,8.836,W*16
$GNRMC,081255.00,A,3737.9914160,N,12704.6585041,E,0.0,,140324,8.8,W,D*10
$PSSN,HRP,081255.00,140324,111.130,,1.502,0.151,,0.358,30,2,8.836,W*1E
$GNRMC,081256.00,A,3737.9914143,N,12704.6585107,E,0.0,,140324,8.8,W,D*11
$PSSN,HRP,081256.00,140324,111.184,,1.184,0.154,,0.358,30,2,8.836,W*1D
$GNRMC,081257.00,A,3737.9914136,N,12704.6585081,E,0.0,,140324,8.8,W,D*1D
$PSSN,HRP,081257.00,140324,111.259,,1.155,0.153,,0.354,29,2,8.836,W*10
$GNRMC,081258.00,A,3737.9914195,N,12704.6585018,E,0.0,,140324,8.8,W,D*1B
$PSSN,HRP,081258.00,140324,111.081,,1.040,0.148,,0.349,31,2,8.836,W*12
$GNRMC,081259.00,A,3737.9914211,N,12704.6584969,E,0.1,,140324,8.8,W,D*1A
$PSSN,HRP,081259.00,140324,111.456,,1.194,0.149,,0.354,26,2,8.836,W*1E
$GNRMC,081300.00,A,3737.9914188,N,12704.6585011,E,0.0,,140324,8.8,W,D*12
$PSSN,HRP,081300.00,140324,111.114,,0.968,0.156,,0.360,26,2,8.836,W*13
$GNRMC,081301.00,A,3737.9914213,N,12704.6585208,E,0.4,,140324,8.8,W,D*1C
$PSSN,HRP,081301.00,140324,111.180,,1.153,0.194,,0.389,27,2,8.836,W*16
$GNRMC,081302.00,A,3737.9914249,N,12704.6585130,E,0.1,,140324,8.8,W,D*1D
$PSSN,HRP,081302.00,140324,111.490,,1.327,0.208,,0.491,28,2,8.836,W*17
$GNRMC,081303.00,A,3737.9914165,N,12704.6585021,E,0.1,,140324,8.8,W,D*10
$PSSN,HRP,081303.00,140324,111.348,,2.380,0.230,,0.633,26,2,8.836,W*15
$GNRMC,081304.00,A,3737.9914176,N,12704.6584963,E,0.1,,140324,8.8,W,D*1B
$PSSN,HRP,081304.00,140324,112.244,,2.969,0.275,,0.784,26,2,8.836,W*1D
$GNRMC,081305.00,A,3737.9914117,N,12704.6584963,E,0.1,,140324,8.8,W,D*1D
$PSSN,HRP,081305.00,140324,111.972,,2.178,0.225,,0.482,20,2,8.836,W*1F
$GNRMC,081306.00,A,3737.9914104,N,12704.6584959,E,0.0,,140324,8.8,W,D*14
$PSSN,HRP,081306.00,140324,112.194,,1.044,0.222,,0.495,21,2,8.836,W*12
$GNRMC,081307.00,A,3737.9914219,N,12704.6585002,E,0.1,,140324,8.8,W,D*1D
$PSSN,HRP,081307.00,140324,111.896,,-0.126,0.238,,0.515,17,2,8.836,W*35
$GNRMC,081308.00,A,3737.9914203,N,12704.6585164,E,0.2,,140324,8.8,W,D*1B
$PSSN,HRP,081308.00,140324,113.004,,-0.518,0.245,,0.523,18,2,8.836,W*32
$GNRMC,081309.00,A,3737.9914185,N,12704.6585065,E,0.0,,140324,8.8,W,D*15
$PSSN,HRP,081309.00,140324,112.235,,0.037,0.270,,0.510,18,2,8.836,W*11
$GNRMC,081310.00,A,3737.9914199,N,12704.6585053,E,0.0,,140324,8.8,W,D*15
$PSSN,HRP,081310.00,140324,111.720,,0.423,0.262,,0.610,29,2,8.836,W*18
$GNRMC,081311.00,A,3737.9914209,N,12704.6585047,E,0.0,,140324,8.8,W,D*1B
$PSSN,HRP,081311.00,140324,111.123,,1.106,0.193,,0.442,29,2,8.836,W*17
$GNRMC,081312.00,A,3737.9914191,N,12704.6585058,E,0.0,,140324,8.8,W,D*14
$PSSN,HRP,081312.00,140324,110.317,,1.114,0.146,,0.328,29,2,8.836,W*10
$GNRMC,081313.00,A,3737.9914201,N,12704.6585046,E,0.1,,140324,8.8,W,D*11
$PSSN,HRP,081313.00,140324,111.510,,1.640,0.179,,0.453,26,2,8.836,W*1F
$GNRMC,081314.00,A,3737.9914214,N,12704.6584946,E,0.0,,140324,8.8,W,D*1B
$PSSN,HRP,081314.00,140324,110.978,,2.260,0.197,,0.426,28,2,8.836,W*12
$GNRMC,081315.00,A,3737.9914255,N,12704.6585044,E,0.4,,140324,8.8,W,D*11
$PSSN,HRP,081315.00,140324,111.400,,1.210,0.377,,0.564,26,2,8.836,W*11
$GNRMC,081316.00,A,3737.9914402,N,12704.6584944,E,0.0,,140324,8.8,W,D*1A
$PSSN,HRP,081316.00,140324,111.996,,2.564,0.293,,0.746,23,2,8.836,W*1B
$GNRMC,081317.00,A,3737.9914345,N,12704.6585081,E,0.1,,140324,8.8,W,D*1F
$PSSN,HRP,081317.00,140324,112.128,,2.800,0.300,,0.869,22,2,8.836,W*13
$GNRMC,081318.00,A,3737.9914402,N,12704.6585104,E,0.1,,140324,8.8,W,D*18
$PSSN,HRP,081318.00,140324,111.547,,0.711,0.344,,0.636,18,2,8.836,W*12
$GNRMC,081319.00,A,3737.9914211,N,12704.6585011,E,0.0,,140324,8.8,W,D*19
$PSSN,HRP,081319.00,140324,111.828,,0.385,0.304,,0.848,21,2,8.836,W*17
$GNRMC,081320.00,A,3737.9914211,N,12704.6585059,E,0.0,,140324,8.8,W,D*1F
$PSSN,HRP,081320.00,140324,111.531,,2.385,0.304,,0.896,23,2,8.836,W*1B
$GNRMC,081321.00,A,3737.9914115,N,12704.6585173,E,0.0,,140324,8.8,W,D*10
$PSSN,HRP,081321.00,140324,111.701,,2.819,0.321,,0.988,25,2,8.836,W*1A
$GNRMC,081322.00,A,3737.9914258,N,12704.6585198,E,0.1,,140324,8.8,W,D*1D
$PSSN,HRP,081322.00,140324,111.689,,1.513,0.284,,0.726,18,2,8.836,W*16
$GNRMC,081323.00,A,3737.9914093,N,12704.6585191,E,0.1,,140324,8.8,W,D*10
$PSSN,HRP,081323.00,140324,111.113,,1.492,0.275,,0.658,26,2,8.836,W*10
$GNRMC,081324.00,A,3737.9914162,N,12704.6585066,E,0.1,,140324,8.8,W,D*11
$PSSN,HRP,081324.00,140324,111.271,,1.138,0.262,,0.632,24,2,8.836,W*1D
$GNRMC,081325.00,A,3737.9914185,N,12704.6585042,E,0.0,,140324,8.8,W,D*1E
$PSSN,HRP,081325.00,140324,111.895,,0.708,0.222,,0.533,26,2,8.836,W*1C
$GNRMC,081326.00,A,3737.9914189,N,12704.6585050,E,0.0,,140324,8.8,W,D*12
$PSSN,HRP,081326.00,140324,111.450,,1.233,0.203,,0.504,27,2,8.836,W*10
$GNRMC,081327.00,A,3737.9914205,N,12704.6585028,E,0.0,,140324,8.8,W,D*1B
$PSSN,HRP,081327.00,140324,111.362,,1.261,0.158,,0.389,25,2,8.836,W*1C
$GNRMC,081328.00,A,3737.9914224,N,12704.6585042,E,0.0,,140324,8.8,W,D*1B
$PSSN,HRP,081328.00,140324,111.420,,1.352,0.155,,0.379,30,2,8.836,W*15
$GNRMC,081329.00,A,3737.9914226,N,12704.6585052,E,0.0,,140324,8.8,W,D*19
$PSSN,HRP,081329.00,140324,111.417,,1.287,0.143,,0.311,30,2,8.836,W*10
$GNRMC,081330.00,A,3737.9914176,N,12704.6585071,E,0.0,,140324,8.8,W,D*16
$PSSN,HRP,081330.00,140324,111.347,,1.546,0.144,,0.329,26,2,8.836,W*1B
$GNRMC,081331.00,A,3737.9914197,N,12704.6585054,E,0.0,,140324,8.8,W,D*1F
$PSSN,HRP,081331.00,140324,111.356,,1.632,0.148,,0.307,27,2,8.836,W*1B
$GNRMC,081332.00,A,3737.9914209,N,12704.6585017,E,0.0,,140324,8.8,W,D*1F
$PSSN,HRP,081332.00,140324,111.299,,1.500,0.154,,0.321,28,2,8.836,W*1E
$GNRMC,081333.00,A,3737.9914185,N,12704.6585038,E,0.0,,140324,8.8,W,D*14
$PSSN,HRP,081333.00,140324,111.377,,1.450,0.140,,0.308,30,2,8.836,W*1D
$GNRMC,081334.00,A,3737.9914197,N,12704.6585039,E,0.0,,140324,8.8,W,D*11
$PSSN,HRP,081334.00,140324,111.358,,1.499,0.154,,0.342,28,2,8.836,W*10
$GNRMC,081335.00,A,3737.9914187,N,12704.6585015,E,0.0,,140324,8.8,W,D*1F
$PSSN,HRP,081335.00,140324,111.148,,1.328,0.151,,0.345,27,2,8.836,W*12
$GNRMC,081336.00,A,3737.9914210,N,12704.6585055,E,0.0,,140324,8.8,W,D*15
$PSSN,HRP,081336.00,140324,111.139,,1.438,0.157,,0.358,29,2,8.836,W*15
$GNRMC,081337.00,A,3737.9914205,N,12704.6585048,E,0.0,,140324,8.8,W,D*1C
$PSSN,HRP,081337.00,140324,111.218,,1.491,0.151,,0.357,30,2,8.836,W*16
$GNRMC,081338.00,A,3737.9914206,N,12704.6585074,E,0.0,,140324,8.8,W,D*1F
$PSSN,HRP,081338.00,140324,111.359,,1.159,0.156,,0.358,29,2,8.836,W*1C
$GNRMC,081339.00,A,3737.9914205,N,12704.6585043,E,0.0,,140324,8.8,W,D*19
$PSSN,HRP,081339.00,140324,111.260,,1.488,0.153,,0.366,29,2,8.836,W*17
$GNRMC,081340.00,A,3737.9914212,N,12704.6585052,E,0.0,,140324,8.8,W,D*11
$PSSN,HRP,081340.00,140324,111.211,,1.492,0.151,,0.360,31,2,8.836,W*19
$GNRMC,081341.00,A,3737.9914219,N,12704.6585055,E,0.0,,140324,8.8,W,D*1C
$PSSN,HRP,081341.00,140324,111.208,,1.301,0.143,,0.342,31,2,8.836,W*1E
$GNRMC,081342.00,A,3737.9914216,N,12704.6585086,E,0.0,,140324,8.8,W,D*1E
$PSSN,HRP,081342.00,140324,111.188,,1.434,0.143,,0.344,31,2,8.836,W*11
$GNRMC,081343.00,A,3737.9914231,N,12704.6585061,E,0.0,,140324,8.8,W,D*13
$PSSN,HRP,081343.00,140324,111.273,,1.614,0.143,,0.343,31,2,8.836,W*10
$GNRMC,081344.00,A,3737.9914216,N,12704.6585071,E,0.0,,140324,8.8,W,D*10
$PSSN,HRP,081344.00,140324,111.252,,1.676,0.143,,0.343,31,2,8.836,W*10
$GNRMC,081345.00,A,3737.9914215,N,12704.6585059,E,0.0,,140324,8.8,W,D*18
$PSSN,HRP,081345.00,140324,111.207,,1.349,0.144,,0.344,31,2,8.836,W*18
$GNRMC,081346.00,A,3737.9914227,N,12704.6585036,E,0.0,,140324,8.8,W,D*13
$PSSN,HRP,081346.00,140324,111.217,,1.430,0.143,,0.343,32,2,8.836,W*10
$GNRMC,081347.00,A,3737.9914235,N,12704.6585048,E,0.0,,140324,8.8,W,D*18
$PSSN,HRP,081347.00,140324,111.337,,1.572,0.141,,0.330,32,2,8.836,W*13
$GNRMC,081348.00,A,3737.9914222,N,12704.6585080,E,0.0,,140324,8.8,W,D*15
$PSSN,HRP,081348.00,140324,111.275,,1.732,0.141,,0.331,32,2,8.836,W*1C
$GNRMC,081349.00,A,3737.9914223,N,12704.6585082,E,0.0,,140324,8.8,W,D*17
$PSSN,HRP,081349.00,140324,111.203,,1.705,0.147,,0.329,31,2,8.836,W*14
$GNRMC,081350.00,A,3737.9914222,N,12704.6585032,E,0.0,,140324,8.8,W,D*15
$PSSN,HRP,081350.00,140324,111.109,,1.602,0.145,,0.326,31,2,8.836,W*1E
$GNRMC,081351.00,A,3737.9914224,N,12704.6585051,E,0.0,,140324,8.8,W,D*17
$PSSN,HRP,081351.00,140324,111.190,,1.772,0.140,,0.326,32,2,8.836,W*1F
$GNRMC,081352.00,A,3737.9914202,N,12704.6585046,E,0.0,,140324,8.8,W,D*16
$PSSN,HRP,081352.00,140324,111.160,,1.607,0.141,,0.328,32,2,8.836,W*1F
$GNRMC,081353.00,A,3737.9914189,N,12704.6585071,E,0.0,,140324,8.8,W,D*13
$PSSN,HRP,081353.00,140324,111.185,,1.534,0.140,,0.327,32,2,8.836,W*18
$GNRMC,081354.00,A,3737.9914186,N,12704.6585059,E,0.0,,140324,8.8,W,D*11
$PSSN,HRP,081354.00,140324,111.202,,1.460,0.141,,0.326,32,2,8.836,W*13
$GNRMC,081355.00,A,3737.9914205,N,12704.6585051,E,0.0,,140324,8.8,W,D*10
$PSSN,HRP,081355.00,140324,111.162,,1.562,0.140,,0.327,32,2,8.836,W*14
$GNRMC,081356.00,A,3737.9914208,N,12704.6585041,E,0.0,,140324,8.8,W,D*1F
$PSSN,HRP,081356.00,140324,111.274,,1.765,0.140,,0.327,32,2,8.836,W*16
$GNRMC,081357.00,A,3737.9914212,N,12704.6585084,E,0.0,,140324,8.8,W,D*1C
$PSSN,HRP,081357.00,140324,111.202,,1.302,0.141,,0.328,32,2,8.836,W*1D
$GNRMC,081358.00,A,3737.9914197,N,12704.6585101,E,0.0,,140324,8.8,W,D*11
$PSSN,HRP,081358.00,140324,111.183,,1.823,0.141,,0.326,32,2,8.836,W*1E
$GNRMC,081359.00,A,3737.9914215,N,12704.6585090,E,0.0,,140324,8.8,W,D*10
$PSSN,HRP,081359.00,140324,111.311,,1.744,0.140,,0.324,32,2,8.836,W*1B
$GNRMC,081400.00,A,3737.9914235,N,12704.6585070,E,0.0,,140324,8.8,W,D*17
$PSSN,HRP,081400.00,140324,111.222,,1.701,0.141,,0.326,32,2,8.836,W*13
$GNRMC,081401.00,A,3737.9914237,N,12704.6585039,E,0.0,,140324,8.8,W,D*19
$PSSN,HRP,081401.00,140324,111.225,,1.613,0.141,,0.328,32,2,8.836,W*19
$GNRMC,081402.00,A,3737.9914214,N,12704.6585059,E,0.0,,140324,8.8,W,D*1D
$PSSN,HRP,081402.00,140324,111.218,,1.680,0.140,,0.325,32,2,8.836,W*12
$GNRMC,081403.00,A,3737.9914173,N,12704.6585082,E,0.0,,140324,8.8,W,D*18
$PSSN,HRP,081403.00,140324,111.214,,1.524,0.140,,0.327,32,2,8.836,W*10
