$GNRMC,023740.00,A,3737.7556050,N,12704.7384512,E,0.0,,190324,8.8,W,D*17
$PSSN,HRP,023740.00,190324,190.890,,0.935,1.359,,1.230,18,2,8.837,W*17
$GNRMC,023740.20,A,3737.7556042,N,12704.7384543,E,0.0,,190324,8.8,W,D*12
$PSSN,HRP,023740.20,190324,191.147,,1.079,1.370,,1.240,18,2,8.837,W*1B
$GNRMC,023740.40,A,3737.7556038,N,12704.7384526,E,0.0,,190324,8.8,W,D*1A
$PSSN,HRP,023740.40,190324,191.037,,1.045,1.376,,1.247,18,2,8.837,W*15
$GNRMC,023740.60,A,3737.7556034,N,12704.7384541,E,0.0,,190324,8.8,W,D*15
$PSSN,HRP,023740.60,190324,191.184,,1.081,1.353,,1.226,18,2,8.837,W*16
$GNRMC,023740.80,A,3737.7556028,N,12704.7384524,E,0.0,,190324,8.8,W,D*15
$PSSN,HRP,023740.80,190324,191.037,,1.066,1.330,,1.206,18,2,8.837,W*1F
$GNRMC,023741.00,A,3737.7556028,N,12704.7384527,E,0.0,,190324,8.8,W,D*1F
$PSSN,HRP,023741.00,190324,190.952,,1.020,1.329,,1.205,18,2,8.837,W*14
$GNRMC,023741.20,A,3737.7556017,N,12704.7384555,E,0.0,,190324,8.8,W,D*14
$PSSN,HRP,023741.20,190324,190.944,,0.930,1.329,,1.206,18,2,8.837,W*1B
$GNRMC,023741.40,A,3737.7556015,N,12704.7384581,E,0.0,,190324,8.8,W,D*19
$PSSN,HRP,023741.40,190324,191.005,,0.919,1.324,,1.201,18,2,8.837,W*11
$GNRMC,023741.60,A,3737.7556013,N,12704.7384589,E,0.0,,190324,8.8,W,D*15
$PSSN,HRP,023741.60,190324,190.824,,0.770,1.318,,1.197,18,2,8.837,W*1B
$GNRMC,023741.80,A,3737.7556016,N,12704.7384623,E,0.0,,190324,8.8,W,D*1D
$PSSN,HRP,023741.80,190324,190.592,,0.717,1.317,,1.197,18,2,8.837,W*1B
$GNRMC,023742.00,A,3737.7556002,N,12704.7384624,E,0.0,,190324,8.8,W,D*14
$PSSN,HRP,023742.00,190324,190.553,,0.555,1.317,,1.197,18,2,8.837,W*19
$GNRMC,023742.20,A,3737.7556005,N,12704.7384638,E,0.0,,190324,8.8,W,D*1C
$PSSN,HRP,023742.20,190324,190.580,,0.586,1.316,,1.196,18,2,8.837,W*1B
$GNRMC,023742.40,A,3737.7556008,N,12704.7384626,E,0.0,,190324,8.8,W,D*18
$PSSN,HRP,023742.40,190324,190.692,,0.652,1.318,,1.198,18,2,8.837,W*17
$GNRMC,023742.60,A,3737.7556011,N,12704.7384599,E,0.0,,190324,8.8,W,D*15
$PSSN,HRP,023742.60,190324,190.694,,0.627,1.323,,1.202,18,2,8.837,W*19
$GNRMC,023742.80,A,3737.7556009,N,12704.7384606,E,0.0,,190324,8.8,W,D*17
$PSSN,HRP,023742.80,190324,190.708,,0.642,1.324,,1.203,18,2,8.837,W*16
$GNRMC,023743.00,A,3737.7556009,N,12704.7384593,E,0.0,,190324,8.8,W,D*11
$PSSN,HRP,023743.00,190324,190.766,,0.813,1.326,,1.204,18,2,8.837,W*18
$GNRMC,023743.20,A,3737.7556013,N,12704.7384608,E,0.0,,190324,8.8,W,D*19
$PSSN,HRP,023743.20,190324,190.819,,0.685,1.326,,1.204,18,2,8.837,W*1C
$GNRMC,023743.40,A,3737.7556012,N,12704.7384597,E,0.0,,190324,8.8,W,D*1B
$PSSN,HRP,023743.40,190324,190.807,,0.779,1.328,,1.205,18,2,8.837,W*18
$GNRMC,023743.60,A,3737.7556010,N,12704.7384581,E,0.0,,190324,8.8,W,D*1C
$PSSN,HRP,023743.60,190324,190.801,,0.694,1.327,,1.202,18,2,8.837,W*16
$GNRMC,023743.80,A,3737.7556009,N,12704.7384583,E,0.0,,190324,8.8,W,D*18
$PSSN,HRP,023743.80,190324,190.791,,0.741,1.324,,1.198,18,2,8.837,W*14
$GNRMC,023744.00,A,3737.7556010,N,12704.7384597,E,0.0,,190324,8.8,W,D*1A
$PSSN,HRP,023744.00,190324,190.702,,0.691,1.325,,1.199,18,2,8.837,W*1D
$GNRMC,023744.20,A,3737.7556014,N,12704.7384592,E,0.0,,190324,8.8,W,D*19
$PSSN,HRP,023744.20,190324,190.392,,0.486,1.321,,1.195,18,2,8.837,W*1E
$GNRMC,023744.40,A,3737.7556015,N,12704.7384606,E,0.0,,190324,8.8,W,D*10
$PSSN,HRP,023744.40,190324,190.534,,0.629,1.310,,1.184,18,2,8.837,W*17
$GNRMC,023744.60,A,3737.7556019,N,12704.7384594,E,0.0,,190324,8.8,W,D*16
$PSSN,HRP,023744.60,190324,190.592,,0.597,1.294,,1.173,18,2,8.837,W*1A
$GNRMC,023744.80,A,3737.7556019,N,12704.7384598,E,0.0,,190324,8.8,W,D*14
$PSSN,HRP,023744.80,190324,190.508,,0.661,1.285,,1.166,18,2,8.837,W*19
$GNRMC,023745.00,A,3737.7556023,N,12704.7384588,E,0.0,,190324,8.8,W,D*15
$PSSN,HRP,023745.00,190324,190.466,,0.571,1.285,,1.166,18,2,8.837,W*1B
$GNRMC,023745.20,A,3737.7556025,N,12704.7384577,E,0.0,,190324,8.8,W,D*11
$PSSN,HRP,023745.20,190324,190.563,,0.647,1.287,,1.168,18,2,8.837,W*17
$GNRMC,023745.40,A,3737.7556027,N,12704.7384582,E,0.0,,190324,8.8,W,D*1F
$PSSN,HRP,023745.40,190324,190.689,,0.623,1.298,,1.178,18,2,8.837,W*1B
$GNRMC,023745.60,A,3737.7556026,N,12704.7384558,E,0.0,,190324,8.8,W,D*1B
$PSSN,HRP,023745.60,190324,190.692,,0.780,1.323,,1.200,18,2,8.837,W*16
$GNRMC,023745.80,A,3737.7556022,N,12704.7384585,E,0.0,,190324,8.8,W,D*11
$PSSN,HRP,023745.80,190324,190.640,,0.715,1.340,,1.215,18,2,8.837,W*1A
$GNRMC,023746.00,A,3737.7556021,N,12704.7384576,E,0.0,,190324,8.8,W,D*15
$PSSN,HRP,023746.00,190324,190.734,,0.762,1.340,,1.215,18,2,8.837,W*13
$GNRMC,023746.20,A,3737.7556023,N,12704.7384552,E,0.0,,190324,8.8,W,D*13
$PSSN,HRP,023746.20,190324,190.714,,0.689,1.355,,1.228,18,2,8.837,W*1D
$GNRMC,023746.40,A,3737.7556012,N,12704.7384588,E,0.0,,190324,8.8,W,D*10
$PSSN,HRP,023746.40,190324,190.730,,0.726,1.368,,1.240,18,2,8.837,W*19
$GNRMC,023746.60,A,3737.7556018,N,12704.7384572,E,0.0,,190324,8.8,W,D*1D
$PSSN,HRP,023746.60,190324,190.765,,0.825,1.358,,1.233,18,2,8.837,W*10
$GNRMC,023746.80,A,3737.7556007,N,12704.7384590,E,0.0,,190324,8.8,W,D*11
$PSSN,HRP,023746.80,190324,190.870,,0.783,1.344,,1.222,18,2,8.837,W*1B
$GNRMC,023747.00,A,3737.7556006,N,12704.7384593,E,0.0,,190324,8.8,W,D*1A
$PSSN,HRP,023747.00,190324,190.966,,0.937,1.342,,1.220,18,2,8.837,W*11
$GNRMC,023747.20,A,3737.7556007,N,12704.7384589,E,0.0,,190324,8.8,W,D*12
$PSSN,HRP,023747.20,190324,190.862,,0.795,1.344,,1.222,18,2,8.837,W*14
$GNRMC,023747.40,A,3737.7556008,N,12704.7384603,E,0.0,,190324,8.8,W,D*1A
$PSSN,HRP,023747.40,190324,190.774,,0.747,1.346,,1.223,18,2,8.837,W*16
$GNRMC,023747.60,A,3737.7556011,N,12704.7384584,E,0.0,,190324,8.8,W,D*1C
$PSSN,HRP,023747.60,190324,190.891,,0.856,1.349,,1.224,18,2,8.837,W*17
$GNRMC,023747.80,A,3737.7556031,N,12704.7384608,E,0.0,,190324,8.8,W,D*17
$PSSN,HRP,023747.80,190324,190.733,,0.765,1.350,,1.224,18,2,8.837,W*19
$GNRMC,023748.00,A,3737.7556019,N,12704.7384575,E,0.0,,190324,8.8,W,D*13
$PSSN,HRP,023748.00,190324,190.736,,0.831,1.352,,1.226,18,2,8.837,W*15
$GNRMC,023748.20,A,3737.7556019,N,12704.7384622,E,0.0,,190324,8.8,W,D*10
$PSSN,HRP,023748.20,190324,190.754,,0.691,1.352,,1.225,17,2,8.837,W*1B
$GNRMC,023748.40,A,3737.7556016,N,12704.7384627,E,0.0,,190324,8.8,W,D*1C
$PSSN,HRP,023748.40,190324,190.696,,0.695,1.352,,1.221,17,2,8.837,W*12
$GNRMC,023748.60,A,3737.7556015,N,12704.7384652,E,0.0,,190324,8.8,W,D*1F
$PSSN,HRP,023748.60,190324,190.631,,0.638,1.353,,1.218,17,2,8.837,W*11
$GNRMC,023748.80,A,3737.7556013,N,12704.7384655,E,0.0,,190324,8.8,W,D*10
$PSSN,HRP,023748.80,190324,190.545,,0.643,1.351,,1.214,17,2,8.837,W*1D
$GNRMC,023749.00,A,3737.7556017,N,12704.7384634,E,0.0,,190324,8.8,W,D*1A
$PSSN,HRP,023749.00,190324,190.525,,0.677,1.351,,1.214,17,2,8.837,W*15
$GNRMC,023749.20,A,3737.7556026,N,12704.7384634,E,0.0,,190324,8.8,W,D*1A
$PSSN,HRP,023749.20,190324,190.629,,0.683,1.348,,1.209,17,2,8.837,W*17
$GNRMC,023749.40,A,3737.7556023,N,12704.7384654,E,0.0,,190324,8.8,W,D*1F
$PSSN,HRP,023749.40,190324,190.613,,0.626,1.346,,1.204,17,2,8.837,W*14
$GNRMC,023749.60,A,3737.7556031,N,12704.7384628,E,0.0,,190324,8.8,W,D*15
$PSSN,HRP,023749.60,190324,190.579,,0.709,1.337,,1.195,17,2,8.837,W*18
$GNRMC,023749.80,A,3737.7556035,N,12704.7384644,E,0.0,,190324,8.8,W,D*15
$PSSN,HRP,023749.80,190324,190.594,,0.675,1.332,,1.190,17,2,8.837,W*1F
$GNRMC,023750.00,A,3737.7556036,N,12704.7384636,E,0.0,,190324,8.8,W,D*13
$PSSN,HRP,023750.00,190324,190.629,,0.645,1.333,,1.192,17,2,8.837,W*1A
$GNRMC,023750.20,A,3737.7556038,N,12704.7384607,E,0.0,,190324,8.8,W,D*1D
$PSSN,HRP,023750.20,190324,190.604,,0.786,1.332,,1.190,17,2,8.837,W*1A
$GNRMC,023750.40,A,3737.7556028,N,12704.7384561,E,0.0,,190324,8.8,W,D*19
$PSSN,HRP,023750.40,190324,190.746,,0.792,1.337,,1.196,17,2,8.837,W*1D
$GNRMC,023750.60,A,3737.7556029,N,12704.7384558,E,0.0,,190324,8.8,W,D*10
$PSSN,HRP,023750.60,190324,190.657,,0.736,1.345,,1.206,17,2,8.837,W*1F
$GNRMC,023750.80,A,3737.7556034,N,12704.7384517,E,0.0,,190324,8.8,W,D*19
$PSSN,HRP,023750.80,190324,190.595,,0.813,1.347,,1.210,17,2,8.837,W*11
$GNRMC,023751.00,A,3737.7556028,N,12704.7384516,E,0.0,,190324,8.8,W,D*1C
$PSSN,HRP,023751.00,190324,190.690,,0.741,1.348,,1.212,17,2,8.837,W*1B
$GNRMC,023751.20,A,3737.7556028,N,12704.7384537,E,0.0,,190324,8.8,W,D*1D
$PSSN,HRP,023751.20,190324,190.773,,0.858,1.348,,1.213,17,2,8.837,W*13
$GNRMC,023751.40,A,3737.7556015,N,12704.7384531,E,0.0,,190324,8.8,W,D*13
$PSSN,HRP,023751.40,190324,190.524,,0.763,1.354,,1.218,17,2,8.837,W*14
$GNRMC,023751.60,A,3737.7556025,N,12704.7384537,E,0.0,,190324,8.8,W,D*14
$PSSN,HRP,023751.60,190324,190.615,,0.769,1.343,,1.205,17,2,8.837,W*17
$GNRMC,023751.80,A,3737.7556021,N,12704.7384540,E,0.0,,190324,8.8,W,D*1E
$PSSN,HRP,023751.80,190324,190.494,,0.758,1.340,,1.199,17,2,8.837,W*15
$GNRMC,023752.00,A,3737.7556020,N,12704.7384554,E,0.0,,190324,8.8,W,D*11
$PSSN,HRP,023752.00,190324,190.574,,0.765,1.337,,1.196,17,2,8.837,W*10
$GNRMC,023752.20,A,3737.7556020,N,12704.7384519,E,0.0,,190324,8.8,W,D*1A
$PSSN,HRP,023752.20,190324,190.599,,0.776,1.339,,1.198,17,2,8.837,W*13
$GNRMC,023752.40,A,3737.7556025,N,12704.7384547,E,0.0,,190324,8.8,W,D*12
$PSSN,HRP,023752.40,190324,190.696,,0.865,1.344,,1.203,17,2,8.837,W*1F
$GNRMC,023752.60,A,3737.7556025,N,12704.7384553,E,0.0,,190324,8.8,W,D*15
$PSSN,HRP,023752.60,190324,190.804,,0.835,1.360,,1.218,17,2,8.837,W*11
$GNRMC,023752.80,A,3737.7556029,N,12704.7384560,E,0.0,,190324,8.8,W,D*17
$PSSN,HRP,023752.80,190324,190.691,,0.849,1.371,,1.229,17,2,8.837,W*14
$GNRMC,023753.00,A,3737.7556025,N,12704.7384539,E,0.0,,190324,8.8,W,D*1E
$PSSN,HRP,023753.00,190324,190.750,,0.880,1.370,,1.228,17,2,8.837,W*14
$GNRMC,023753.20,A,3737.7556022,N,12704.7384520,E,0.0,,190324,8.8,W,D*13
$PSSN,HRP,023753.20,190324,190.579,,0.724,1.382,,1.240,17,2,8.837,W*1D
$GNRMC,023753.40,A,3737.7556026,N,12704.7384537,E,0.0,,190324,8.8,W,D*17
$PSSN,HRP,023753.40,190324,190.712,,0.801,1.386,,1.244,17,2,8.837,W*1C
$GNRMC,023753.60,A,3737.7556027,N,12704.7384539,E,0.0,,190324,8.8,W,D*1A
$PSSN,HRP,023753.60,190324,190.490,,0.722,1.378,,1.237,17,2,8.837,W*1C
$GNRMC,023753.80,A,3737.7556018,N,12704.7384552,E,0.0,,190324,8.8,W,D*15
$PSSN,HRP,023753.80,190324,190.617,,0.754,1.369,,1.229,17,2,8.837,W*11
$GNRMC,023754.00,A,3737.7556019,N,12704.7384569,E,0.0,,190324,8.8,W,D*13
$PSSN,HRP,023754.00,190324,190.585,,0.680,1.367,,1.227,17,2,8.837,W*1E
$GNRMC,023754.20,A,3737.7556020,N,12704.7384558,E,0.0,,190324,8.8,W,D*19
$PSSN,HRP,023754.20,190324,190.491,,0.656,1.366,,1.226,17,2,8.837,W*13
$GNRMC,023754.40,A,3737.7556027,N,12704.7384589,E,0.0,,190324,8.8,W,D*14
$PSSN,HRP,023754.40,190324,190.570,,0.702,1.366,,1.225,17,2,8.837,W*18
$GNRMC,023754.60,A,3737.7556022,N,12704.7384643,E,0.0,,190324,8.8,W,D*16
$PSSN,HRP,023754.60,190324,190.686,,0.744,1.364,,1.222,17,2,8.837,W*17
$GNRMC,023754.80,A,3737.7556029,N,12704.7384611,E,0.0,,190324,8.8,W,D*14
$PSSN,HRP,023754.80,190324,190.616,,0.758,1.364,,1.221,17,2,8.837,W*1E
$GNRMC,023755.00,A,3737.7556035,N,12704.7384630,E,0.0,,190324,8.8,W,D*13
$PSSN,HRP,023755.00,190324,190.739,,0.839,1.363,,1.220,17,2,8.837,W*15
$GNRMC,023755.20,A,3737.7556035,N,12704.7384600,E,0.0,,190324,8.8,W,D*12
$PSSN,HRP,023755.20,190324,190.839,,0.964,1.362,,1.219,18,2,8.837,W*15
$GNRMC,023755.40,A,3737.7556037,N,12704.7384611,E,0.0,,190324,8.8,W,D*16
$PSSN,HRP,023755.40,190324,190.866,,0.926,1.353,,1.215,18,2,8.837,W*11
$GNRMC,023755.60,A,3737.7556043,N,12704.7384604,E,0.0,,190324,8.8,W,D*13
$PSSN,HRP,023755.60,190324,190.869,,0.843,1.333,,1.205,18,2,8.837,W*19
$GNRMC,023755.80,A,3737.7556038,N,12704.7384614,E,0.0,,190324,8.8,W,D*10
$PSSN,HRP,023755.80,190324,190.886,,0.965,1.320,,1.200,18,2,8.837,W*14
$GNRMC,023756.00,A,3737.7556035,N,12704.7384615,E,0.0,,190324,8.8,W,D*17
$PSSN,HRP,023756.00,190324,191.099,,1.055,1.321,,1.201,18,2,8.837,W*13
$GNRMC,023756.20,A,3737.7556045,N,12704.7384646,E,0.0,,190324,8.8,W,D*14
$PSSN,HRP,023756.20,190324,191.167,,1.138,1.321,,1.201,18,2,8.837,W*1B
$GNRMC,023756.40,A,3737.7556041,N,12704.7384611,E,0.0,,190324,8.8,W,D*14
$PSSN,HRP,023756.40,190324,190.892,,0.933,1.330,,1.208,18,2,8.837,W*14
$GNRMC,023756.60,A,3737.7556049,N,12704.7384606,E,0.0,,190324,8.8,W,D*18
$PSSN,HRP,023756.60,190324,190.912,,0.854,1.344,,1.222,18,2,8.837,W*14
$GNRMC,023756.80,A,3737.7556049,N,12704.7384617,E,0.0,,190324,8.8,W,D*16
$PSSN,HRP,023756.80,190324,190.931,,0.919,1.355,,1.231,18,2,8.837,W*11
$GNRMC,023757.00,A,3737.7556054,N,12704.7384615,E,0.0,,190324,8.8,W,D*11
$PSSN,HRP,023757.00,190324,190.774,,0.931,1.355,,1.231,18,2,8.837,W*1D
$GNRMC,023757.20,A,3737.7556042,N,12704.7384609,E,0.0,,190324,8.8,W,D*19
$PSSN,HRP,023757.20,190324,190.817,,0.730,1.364,,1.239,18,2,8.837,W*10
$GNRMC,023757.40,A,3737.7556050,N,12704.7384615,E,0.0,,190324,8.8,W,D*11
$PSSN,HRP,023757.40,190324,190.862,,0.813,1.369,,1.245,18,2,8.837,W*1C
$GNRMC,023757.60,A,3737.7556045,N,12704.7384598,E,0.0,,190324,8.8,W,D*11
$PSSN,HRP,023757.60,190324,190.801,,0.728,1.363,,1.241,18,2,8.837,W*12
$GNRMC,023757.80,A,3737.7556047,N,12704.7384584,E,0.0,,190324,8.8,W,D*10
$PSSN,HRP,023757.80,190324,190.903,,0.687,1.351,,1.232,18,2,8.837,W*1E
$GNRMC,023758.00,A,3737.7556044,N,12704.7384541,E,0.0,,190324,8.8,W,D*1D
$PSSN,HRP,023758.00,190324,190.813,,0.730,1.353,,1.233,18,2,8.837,W*17
$GNRMC,023758.20,A,3737.7556042,N,12704.7384558,E,0.0,,190324,8.8,W,D*11
$PSSN,HRP,023758.20,190324,190.784,,0.598,1.346,,1.228,18,2,8.837,W*1A
$GNRMC,023758.40,A,3737.7556033,N,12704.7384551,E,0.0,,190324,8.8,W,D*18
$PSSN,HRP,023758.40,190324,190.593,,0.522,1.337,,1.218,18,2,8.837,W*1C
$GNRMC,023758.60,A,3737.7556029,N,12704.7384585,E,0.0,,190324,8.8,W,D*18
$PSSN,HRP,023758.60,190324,190.532,,0.418,1.323,,1.205,18,2,8.837,W*14
$GNRMC,023758.80,A,3737.7556029,N,12704.7384585,E,0.0,,190324,8.8,W,D*16
$PSSN,HRP,023758.80,190324,190.521,,0.453,1.318,,1.200,18,2,8.837,W*1A
$GNRMC,023759.00,A,3737.7556028,N,12704.7384584,E,0.0,,190324,8.8,W,D*1F
$PSSN,HRP,023759.00,190324,190.449,,0.437,1.317,,1.199,18,2,8.837,W*12
$GNRMC,023759.20,A,3737.7556028,N,12704.7384646,E,0.0,,190324,8.8,W,D*10
$PSSN,HRP,023759.20,190324,190.545,,0.480,1.317,,1.199,18,2,8.837,W*11
$GNRMC,023759.40,A,3737.7556029,N,12704.7384631,E,0.0,,190324,8.8,W,D*17
$PSSN,HRP,023759.40,190324,190.491,,0.454,1.325,,1.206,18,2,8.837,W*12
$GNRMC,023759.60,A,3737.7556025,N,12704.7384663,E,0.0,,190324,8.8,W,D*1E
$PSSN,HRP,023759.60,190324,190.539,,0.562,1.335,,1.216,18,2,8.837,W*17
$GNRMC,023759.80,A,3737.7556037,N,12704.7384636,E,0.0,,190324,8.8,W,D*13
$PSSN,HRP,023759.80,190324,190.499,,0.583,1.342,,1.222,18,2,8.837,W*1A
$GNRMC,023800.00,A,3737.7556042,N,12704.7384663,E,0.0,,190324,8.8,W,D*1A
$PSSN,HRP,023800.00,190324,190.600,,0.582,1.341,,1.222,18,2,8.837,W*11
$GNRMC,023800.20,A,3737.7556036,N,12704.7384674,E,0.0,,190324,8.8,W,D*1D
$PSSN,HRP,023800.20,190324,190.623,,0.722,1.348,,1.228,18,2,8.837,W*19
$GNRMC,023800.40,A,3737.7556037,N,12704.7384672,E,0.0,,190324,8.8,W,D*1C
$PSSN,HRP,023800.40,190324,190.522,,0.478,1.338,,1.219,18,2,8.837,W*14
$GNRMC,023800.60,A,3737.7556032,N,12704.7384676,E,0.0,,190324,8.8,W,D*1F
$PSSN,HRP,023800.60,190324,190.609,,0.621,1.307,,1.190,18,2,8.837,W*1C
$GNRMC,023800.80,A,3737.7556031,N,12704.7384675,E,0.0,,190324,8.8,W,D*11
$PSSN,HRP,023800.80,190324,190.668,,0.728,1.281,,1.164,18,2,8.837,W*19
$GNRMC,023801.00,A,3737.7556031,N,12704.7384685,E,0.0,,190324,8.8,W,D*17
$PSSN,HRP,023801.00,190324,190.699,,0.658,1.280,,1.163,18,2,8.837,W*1E
$GNRMC,023801.20,A,3737.7556028,N,12704.7384663,E,0.0,,190324,8.8,W,D*15
$PSSN,HRP,023801.20,190324,190.727,,0.745,1.283,,1.166,18,2,8.837,W*13
$GNRMC,023801.40,A,3737.7556041,N,12704.7384680,E,0.0,,190324,8.8,W,D*11
$PSSN,HRP,023801.40,190324,190.907,,0.848,1.290,,1.172,18,2,8.837,W*1C
$GNRMC,023801.60,A,3737.7556045,N,12704.7384665,E,0.0,,190324,8.8,W,D*1C
$PSSN,HRP,023801.60,190324,190.862,,0.837,1.305,,1.188,18,2,8.837,W*1C
$GNRMC,023801.80,A,3737.7556045,N,12704.7384659,E,0.0,,190324,8.8,W,D*1D
$PSSN,HRP,023801.80,190324,190.832,,0.871,1.315,,1.198,18,2,8.837,W*15
$GNRMC,023802.00,A,3737.7556051,N,12704.7384645,E,0.0,,190324,8.8,W,D*1E
$PSSN,HRP,023802.00,190324,190.945,,0.948,1.314,,1.197,18,2,8.837,W*1A
$GNRMC,023802.20,A,3737.7556048,N,12704.7384642,E,0.0,,190324,8.8,W,D*13
$PSSN,HRP,023802.20,190324,190.917,,0.925,1.324,,1.208,18,2,8.837,W*12
$GNRMC,023802.40,A,3737.7556046,N,12704.7384586,E,0.0,,190324,8.8,W,D*10
$PSSN,HRP,023802.40,190324,190.794,,0.801,1.335,,1.218,18,2,8.837,W*17
$GNRMC,023802.60,A,3737.7556043,N,12704.7384598,E,0.0,,190324,8.8,W,D*18
$PSSN,HRP,023802.60,190324,190.717,,0.757,1.330,,1.212,18,2,8.837,W*1D
$GNRMC,023802.80,A,3737.7556043,N,12704.7384557,E,0.0,,190324,8.8,W,D*15
$PSSN,HRP,023802.80,190324,190.819,,0.941,1.321,,1.203,18,2,8.837,W*1B
$GNRMC,023803.00,A,3737.7556049,N,12704.7384553,E,0.0,,190324,8.8,W,D*12
$PSSN,HRP,023803.00,190324,190.710,,0.825,1.322,,1.203,18,2,8.837,W*14
$GNRMC,023803.20,A,3737.7556046,N,12704.7384529,E,0.0,,190324,8.8,W,D*12
$PSSN,HRP,023803.20,190324,190.674,,0.708,1.324,,1.206,18,2,8.837,W*16
$GNRMC,023803.40,A,3737.7556054,N,12704.7384550,E,0.0,,190324,8.8,W,D*19
$PSSN,HRP,023803.40,190324,190.453,,0.623,1.325,,1.206,18,2,8.837,W*1E
$GNRMC,023803.60,A,3737.7556054,N,12704.7384547,E,0.0,,190324,8.8,W,D*1D
$PSSN,HRP,023803.60,190324,190.525,,0.510,1.331,,1.211,18,2,8.837,W*1C
$GNRMC,023803.80,A,3737.7556047,N,12704.7384558,E,0.0,,190324,8.8,W,D*1F
$PSSN,HRP,023803.80,190324,190.530,,0.602,1.335,,1.215,18,2,8.837,W*16
$GNRMC,023804.00,A,3737.7556054,N,12704.7384588,E,0.0,,190324,8.8,W,D*1F
$PSSN,HRP,023804.00,190324,190.407,,0.440,1.334,,1.214,18,2,8.837,W*18
$GNRMC,023804.20,A,3737.7556064,N,12704.7384562,E,0.0,,190324,8.8,W,D*1A
$PSSN,HRP,023804.20,190324,190.616,,0.645,1.338,,1.217,18,2,8.837,W*10
$GNRMC,023804.40,A,3737.7556066,N,12704.7384607,E,0.0,,190324,8.8,W,D*1E
$PSSN,HRP,023804.40,190324,190.680,,0.674,1.340,,1.219,18,2,8.837,W*1A
$GNRMC,023804.60,A,3737.7556076,N,12704.7384630,E,0.0,,190324,8.8,W,D*19
$PSSN,HRP,023804.60,190324,190.901,,0.783,1.335,,1.214,18,2,8.837,W*18
$GNRMC,023804.80,A,3737.7556080,N,12704.7384642,E,0.0,,190324,8.8,W,D*1B
$PSSN,HRP,023804.80,190324,190.709,,0.726,1.332,,1.211,18,2,8.837,W*1D
$GNRMC,023805.00,A,3737.7556087,N,12704.7384657,E,0.0,,190324,8.8,W,D*11
$PSSN,HRP,023805.00,190324,190.934,,0.858,1.331,,1.210,18,2,8.837,W*10
$GNRMC,023805.20,A,3737.7556079,N,12704.7384659,E,0.0,,190324,8.8,W,D*1C
$PSSN,HRP,023805.20,190324,190.978,,0.871,1.330,,1.209,18,2,8.837,W*18
$GNRMC,023805.40,A,3737.7556070,N,12704.7384649,E,0.0,,190324,8.8,W,D*12
$PSSN,HRP,023805.40,190324,191.111,,0.899,1.333,,1.212,18,2,8.837,W*17
$GNRMC,023805.60,A,3737.7556068,N,12704.7384628,E,0.0,,190324,8.8,W,D*1E
$PSSN,HRP,023805.60,190324,190.980,,0.789,1.333,,1.213,18,2,8.837,W*1B
$GNRMC,023805.80,A,3737.7556070,N,12704.7384607,E,0.0,,190324,8.8,W,D*14
$PSSN,HRP,023805.80,190324,191.003,,0.813,1.334,,1.215,18,2,8.837,W*1B
$GNRMC,023806.00,A,3737.7556056,N,12704.7384584,E,0.0,,190324,8.8,W,D*13
$PSSN,HRP,023806.00,190324,191.156,,0.973,1.334,,1.214,18,2,8.837,W*17
$GNRMC,023806.20,A,3737.7556059,N,12704.7384577,E,0.0,,190324,8.8,W,D*12
$PSSN,HRP,023806.20,190324,191.084,,0.893,1.334,,1.215,18,2,8.837,W*15
$GNRMC,023806.40,A,3737.7556056,N,12704.7384612,E,0.0,,190324,8.8,W,D*1B
$PSSN,HRP,023806.40,190324,190.988,,0.860,1.338,,1.218,18,2,8.837,W*1A
$GNRMC,023806.60,A,3737.7556050,N,12704.7384590,E,0.0,,190324,8.8,W,D*16
$PSSN,HRP,023806.60,190324,191.002,,0.762,1.341,,1.220,18,2,8.837,W*1A
$GNRMC,023806.80,A,3737.7556051,N,12704.7384592,E,0.0,,190324,8.8,W,D*1B
$PSSN,HRP,023806.80,190324,190.899,,0.841,1.342,,1.219,18,2,8.837,W*18
$GNRMC,023807.00,A,3737.7556054,N,12704.7384554,E,0.0,,190324,8.8,W,D*1D
$PSSN,HRP,023807.00,190324,190.830,,0.837,1.342,,1.219,18,2,8.837,W*13
$GNRMC,023807.20,A,3737.7556054,N,12704.7384585,E,0.0,,190324,8.8,W,D*13
$PSSN,HRP,023807.20,190324,190.910,,0.831,1.343,,1.220,18,2,8.837,W*1F
$GNRMC,023807.40,A,3737.7556062,N,12704.7384593,E,0.0,,190324,8.8,W,D*17
$PSSN,HRP,023807.40,190324,190.928,,0.718,1.337,,1.214,18,2,8.837,W*12
$GNRMC,023807.60,A,3737.7556066,N,12704.7384578,E,0.0,,190324,8.8,W,D*14
$PSSN,HRP,023807.60,190324,190.816,,0.597,1.330,,1.207,18,2,8.837,W*1C
$GNRMC,023807.80,A,3737.7556068,N,12704.7384593,E,0.0,,190324,8.8,W,D*11
$PSSN,HRP,023807.80,190324,190.891,,0.693,1.325,,1.203,18,2,8.837,W*1A
$GNRMC,023808.00,A,3737.7556073,N,12704.7384572,E,0.0,,190324,8.8,W,D*13
$PSSN,HRP,023808.00,190324,190.769,,0.654,1.325,,1.202,18,2,8.837,W*1F
$GNRMC,023808.20,A,3737.7556072,N,12704.7384622,E,0.0,,190324,8.8,W,D*16
$PSSN,HRP,023808.20,190324,190.854,,0.680,1.324,,1.202,18,2,8.837,W*14
$GNRMC,023808.40,A,3737.7556073,N,12704.7384574,E,0.0,,190324,8.8,W,D*11
$PSSN,HRP,023808.40,190324,190.948,,0.683,1.320,,1.199,18,2,8.837,W*18
$GNRMC,023808.60,A,3737.7556076,N,12704.7384623,E,0.0,,190324,8.8,W,D*17
$PSSN,HRP,023808.60,190324,190.930,,0.774,1.315,,1.195,18,2,8.837,W*16
$GNRMC,023808.80,A,3737.7556072,N,12704.7384596,E,0.0,,190324,8.8,W,D*10
$PSSN,HRP,023808.80,190324,190.936,,0.779,1.316,,1.196,18,2,8.837,W*13
$GNRMC,023809.00,A,3737.7556073,N,12704.7384620,E,0.0,,190324,8.8,W,D*16
$PSSN,HRP,023809.00,190324,191.013,,0.720,1.315,,1.195,18,2,8.837,W*19
$GNRMC,023809.20,A,3737.7556069,N,12704.7384613,E,0.0,,190324,8.8,W,D*1F
$PSSN,HRP,023809.20,190324,191.076,,0.916,1.316,,1.196,18,2,8.837,W*13
$GNRMC,023809.40,A,3737.7556070,N,12704.7384663,E,0.0,,190324,8.8,W,D*16
$PSSN,HRP,023809.40,190324,191.000,,0.841,1.320,,1.199,18,2,8.837,W*1D
$GNRMC,023809.60,A,3737.7556072,N,12704.7384634,E,0.0,,190324,8.8,W,D*14
$PSSN,HRP,023809.60,190324,190.945,,0.856,1.334,,1.209,18,2,8.837,W*1F
$GNRMC,023809.80,A,3737.7556078,N,12704.7384665,E,0.0,,190324,8.8,W,D*14
$PSSN,HRP,023809.80,190324,191.008,,0.931,1.340,,1.213,18,2,8.837,W*18
$GNRMC,023810.00,A,3737.7556068,N,12704.7384653,E,0.0,,190324,8.8,W,D*10
$PSSN,HRP,023810.00,190324,191.118,,0.952,1.342,,1.215,18,2,8.837,W*19
$GNRMC,023810.20,A,3737.7556071,N,12704.7384707,E,0.0,,190324,8.8,W,D*1A
$PSSN,HRP,023810.20,190324,190.784,,0.677,1.346,,1.218,18,2,8.837,W*18
$GNRMC,023810.40,A,3737.7556083,N,12704.7384636,E,0.0,,190324,8.8,W,D*12
$PSSN,HRP,023810.40,190324,190.781,,0.674,1.350,,1.221,18,2,8.837,W*15
$GNRMC,023810.60,A,3737.7556075,N,12704.7384644,E,0.0,,190324,8.8,W,D*1C
$PSSN,HRP,023810.60,190324,190.794,,0.711,1.340,,1.215,18,2,8.837,W*17
$GNRMC,023810.80,A,3737.7556078,N,12704.7384602,E,0.0,,190324,8.8,W,D*1D
$PSSN,HRP,023810.80,190324,190.546,,0.615,1.328,,1.207,18,2,8.837,W*1C
$GNRMC,023811.00,A,3737.7556075,N,12704.7384629,E,0.0,,190324,8.8,W,D*10
$PSSN,HRP,023811.00,190324,190.649,,0.462,1.327,,1.207,18,2,8.837,W*14
$GNRMC,023811.20,A,3737.7556070,N,12704.7384577,E,0.0,,190324,8.8,W,D*1F
$PSSN,HRP,023811.20,190324,190.564,,0.562,1.329,,1.210,18,2,8.837,W*13
$GNRMC,023811.40,A,3737.7556064,N,12704.7384583,E,0.0,,190324,8.8,W,D*17
$PSSN,HRP,023811.40,190324,190.633,,0.589,1.329,,1.211,18,2,8.837,W*10
$GNRMC,023811.60,A,3737.7556053,N,12704.7384565,E,0.0,,190324,8.8,W,D*19
$PSSN,HRP,023811.60,190324,190.707,,0.594,1.331,,1.214,18,2,8.837,W*14
$GNRMC,023811.80,A,3737.7556053,N,12704.7384557,E,0.0,,190324,8.8,W,D*16
$PSSN,HRP,023811.80,190324,190.739,,0.735,1.330,,1.213,18,2,8.837,W*18
$GNRMC,023812.00,A,3737.7556045,N,12704.7384531,E,0.0,,190324,8.8,W,D*1A
$PSSN,HRP,023812.00,190324,190.735,,0.768,1.331,,1.214,18,2,8.837,W*11
$GNRMC,023812.20,A,3737.7556045,N,12704.7384526,E,0.0,,190324,8.8,W,D*1E
$PSSN,HRP,023812.20,190324,190.846,,0.759,1.332,,1.215,18,2,8.837,W*18
$GNRMC,023812.40,A,3737.7556041,N,12704.7384565,E,0.0,,190324,8.8,W,D*1B
$PSSN,HRP,023812.40,190324,190.937,,0.960,1.335,,1.217,18,2,8.837,W*18
$GNRMC,023812.60,A,3737.7556039,N,12704.7384558,E,0.0,,190324,8.8,W,D*18
$PSSN,HRP,023812.60,190324,190.966,,0.834,1.337,,1.219,18,2,8.837,W*12
$GNRMC,023812.80,A,3737.7556044,N,12704.7384555,E,0.0,,190324,8.8,W,D*11
$PSSN,HRP,023812.80,190324,190.951,,0.759,1.337,,1.220,18,2,8.837,W*16
$GNRMC,023813.00,A,3737.7556040,N,12704.7384533,E,0.0,,190324,8.8,W,D*1C
$PSSN,HRP,023813.00,190324,190.965,,0.705,1.340,,1.223,18,2,8.837,W*12
$GNRMC,023813.20,A,3737.7556043,N,12704.7384553,E,0.0,,190324,8.8,W,D*1B
$PSSN,HRP,023813.20,190324,190.776,,0.638,1.342,,1.224,18,2,8.837,W*16
$GNRMC,023813.40,A,3737.7556054,N,12704.7384542,E,0.0,,190324,8.8,W,D*1B
$PSSN,HRP,023813.40,190324,190.795,,0.674,1.340,,1.221,18,2,8.837,W*12
$GNRMC,023813.60,A,3737.7556053,N,12704.7384555,E,0.0,,190324,8.8,W,D*18
$PSSN,HRP,023813.60,190324,190.745,,0.735,1.338,,1.218,18,2,8.837,W*1C
$GNRMC,023813.80,A,3737.7556058,N,12704.7384582,E,0.0,,190324,8.8,W,D*17
$PSSN,HRP,023813.80,190324,190.593,,0.561,1.333,,1.213,18,2,8.837,W*18
$GNRMC,023814.00,A,3737.7556065,N,12704.7384572,E,0.0,,190324,8.8,W,D*19
$PSSN,HRP,023814.00,190324,190.456,,0.486,1.333,,1.212,18,2,8.837,W*16
$GNRMC,023814.20,A,3737.7556068,N,12704.7384553,E,0.0,,190324,8.8,W,D*15
$PSSN,HRP,023814.20,190324,190.410,,0.452,1.334,,1.214,18,2,8.837,W*1E
$GNRMC,023814.40,A,3737.7556067,N,12704.7384558,E,0.0,,190324,8.8,W,D*17
$PSSN,HRP,023814.40,190324,190.640,,0.606,1.334,,1.215,18,2,8.837,W*1D
$GNRMC,023814.60,A,3737.7556068,N,12704.7384541,E,0.0,,190324,8.8,W,D*12
$PSSN,HRP,023814.60,190324,190.528,,0.678,1.336,,1.218,18,2,8.837,W*14
$GNRMC,023814.80,A,3737.7556068,N,12704.7384505,E,0.0,,190324,8.8,W,D*1C
$PSSN,HRP,023814.80,190324,190.511,,0.558,1.336,,1.221,18,2,8.837,W*1B
$GNRMC,023815.00,A,3737.7556066,N,12704.7384524,E,0.0,,190324,8.8,W,D*18
$PSSN,HRP,023815.00,190324,190.519,,0.553,1.337,,1.221,18,2,8.837,W*10
$GNRMC,023815.20,A,3737.7556063,N,12704.7384537,E,0.0,,190324,8.8,W,D*1D
$PSSN,HRP,023815.20,190324,190.579,,0.698,1.340,,1.225,18,2,8.837,W*14
$GNRMC,023815.40,A,3737.7556063,N,12704.7384547,E,0.0,,190324,8.8,W,D*1C
$PSSN,HRP,023815.40,190324,190.644,,0.676,1.343,,1.227,18,2,8.837,W*1E
$GNRMC,023815.60,A,3737.7556071,N,12704.7384555,E,0.0,,190324,8.8,W,D*1E
$PSSN,HRP,023815.60,190324,190.721,,0.749,1.345,,1.226,18,2,8.837,W*14
$GNRMC,023815.80,A,3737.7556066,N,12704.7384645,E,0.0,,190324,8.8,W,D*14
$PSSN,HRP,023815.80,190324,190.774,,0.766,1.347,,1.225,18,2,8.837,W*16
$GNRMC,023816.00,A,3737.7556071,N,12704.7384600,E,0.0,,190324,8.8,W,D*18
$PSSN,HRP,023816.00,190324,190.875,,0.888,1.347,,1.224,18,2,8.837,W*1D
$GNRMC,023816.20,A,3737.7556070,N,12704.7384626,E,0.0,,190324,8.8,W,D*1F
$PSSN,HRP,023816.20,190324,190.845,,0.815,1.347,,1.223,18,2,8.837,W*1F
$GNRMC,023816.40,A,3737.7556069,N,12704.7384603,E,0.0,,190324,8.8,W,D*16
$PSSN,HRP,023816.40,190324,190.558,,0.607,1.348,,1.222,18,2,8.837,W*1B
$GNRMC,023816.60,A,3737.7556072,N,12704.7384547,E,0.0,,190324,8.8,W,D*1D
$PSSN,HRP,023816.60,190324,190.602,,0.586,1.344,,1.221,18,2,8.837,W*10
$GNRMC,023816.80,A,3737.7556066,N,12704.7384575,E,0.0,,190324,8.8,W,D*17
$PSSN,HRP,023816.80,190324,190.571,,0.606,1.340,,1.220,18,2,8.837,W*17
$GNRMC,023817.00,A,3737.7556072,N,12704.7384562,E,0.0,,190324,8.8,W,D*1D
$PSSN,HRP,023817.00,190324,190.299,,0.508,1.340,,1.219,18,2,8.837,W*18
$GNRMC,023817.20,A,3737.7556062,N,12704.7384552,E,0.0,,190324,8.8,W,D*1D
$PSSN,HRP,023817.20,190324,190.298,,0.469,1.338,,1.218,18,2,8.837,W*13
$GNRMC,023817.40,A,3737.7556061,N,12704.7384614,E,0.0,,190324,8.8,W,D*19
$PSSN,HRP,023817.40,190324,190.461,,0.490,1.334,,1.216,18,2,8.837,W*11
$GNRMC,023817.60,A,3737.7556062,N,12704.7384564,E,0.0,,190324,8.8,W,D*1C
$PSSN,HRP,023817.60,190324,190.250,,0.362,1.330,,1.213,18,2,8.837,W*1C
$GNRMC,023817.80,A,3737.7556052,N,12704.7384593,E,0.0,,190324,8.8,W,D*19
$PSSN,HRP,023817.80,190324,190.373,,0.350,1.328,,1.212,18,2,8.837,W*1B
$GNRMC,023818.00,A,3737.7556046,N,12704.7384600,E,0.0,,190324,8.8,W,D*12
$PSSN,HRP,023818.00,190324,190.498,,0.473,1.328,,1.212,18,2,8.837,W*18
$GNRMC,023818.20,A,3737.7556059,N,12704.7384594,E,0.0,,190324,8.8,W,D*10
$PSSN,HRP,023818.20,190324,190.377,,0.464,1.324,,1.208,18,2,8.837,W*1D
$GNRMC,023818.40,A,3737.7556057,N,12704.7384587,E,0.0,,190324,8.8,W,D*1A
$PSSN,HRP,023818.40,190324,190.283,,0.260,1.320,,1.205,18,2,8.837,W*1A
$GNRMC,023818.60,A,3737.7556060,N,12704.7384624,E,0.0,,190324,8.8,W,D*16
$PSSN,HRP,023818.60,190324,190.314,,0.318,1.312,,1.196,18,2,8.837,W*11
$GNRMC,023818.80,A,3737.7556068,N,12704.7384590,E,0.0,,190324,8.8,W,D*1C
$PSSN,HRP,023818.80,190324,190.251,,0.345,1.309,,1.191,18,2,8.837,W*1A
$GNRMC,023819.00,A,3737.7556074,N,12704.7384617,E,0.0,,190324,8.8,W,D*14
$PSSN,HRP,023819.00,190324,190.130,,0.266,1.308,,1.191,18,2,8.837,W*16
$GNRMC,023819.20,A,3737.7556072,N,12704.7384621,E,0.0,,190324,8.8,W,D*15
$PSSN,HRP,023819.20,190324,190.137,,0.181,1.310,,1.193,18,2,8.837,W*12
$GNRMC,023819.40,A,3737.7556066,N,12704.7384573,E,0.0,,190324,8.8,W,D*12
$PSSN,HRP,023819.40,190324,190.085,,0.373,1.315,,1.195,18,2,8.837,W*10
$GNRMC,023819.60,A,3737.7556067,N,12704.7384560,E,0.0,,190324,8.8,W,D*13
$PSSN,HRP,023819.60,190324,190.252,,0.364,1.318,,1.197,18,2,8.837,W*13
$GNRMC,023819.80,A,3737.7556051,N,12704.7384568,E,0.0,,190324,8.8,W,D*10
$PSSN,HRP,023819.80,190324,190.276,,0.421,1.324,,1.202,18,2,8.837,W*1D
$GNRMC,023820.00,A,3737.7556050,N,12704.7384538,E,0.0,,190324,8.8,W,D*16
$PSSN,HRP,023820.00,190324,190.374,,0.423,1.324,,1.201,18,2,8.837,W*1D
$GNRMC,023820.20,A,3737.7556055,N,12704.7384527,E,0.0,,190324,8.8,W,D*1F
$PSSN,HRP,023820.20,190324,190.229,,0.387,1.327,,1.203,18,2,8.837,W*1E
$GNRMC,023820.40,A,3737.7556058,N,12704.7384510,E,0.0,,190324,8.8,W,D*10
$PSSN,HRP,023820.40,190324,190.245,,0.396,1.333,,1.209,18,2,8.837,W*1D
$GNRMC,023820.60,A,3737.7556063,N,12704.7384490,E,0.0,,190324,8.8,W,D*13
$PSSN,HRP,023820.60,190324,190.391,,0.441,1.335,,1.213,18,2,8.837,W*17
$GNRMC,023820.80,A,3737.7556065,N,12704.7384474,E,0.0,,190324,8.8,W,D*11
$PSSN,HRP,023820.80,190324,190.415,,0.606,1.334,,1.214,18,2,8.837,W*15
$GNRMC,023821.00,A,3737.7556069,N,12704.7384442,E,0.0,,190324,8.8,W,D*11
$PSSN,HRP,023821.00,190324,190.449,,0.560,1.333,,1.213,18,2,8.837,W*16
$GNRMC,023821.20,A,3737.7556067,N,12704.7384419,E,0.0,,190324,8.8,W,D*13
$PSSN,HRP,023821.20,190324,190.496,,0.654,1.332,,1.214,18,2,8.837,W*14
$GNRMC,023821.40,A,3737.7556068,N,12704.7384416,E,0.0,,190324,8.8,W,D*15
$PSSN,HRP,023821.40,190324,190.673,,0.728,1.323,,1.208,18,2,8.837,W*1C
$GNRMC,023821.60,A,3737.7556063,N,12704.7384456,E,0.0,,190324,8.8,W,D*18
$PSSN,HRP,023821.60,190324,190.761,,0.850,1.308,,1.192,18,2,8.837,W*15
$GNRMC,023821.80,A,3737.7556060,N,12704.7384465,E,0.0,,190324,8.8,W,D*15
$PSSN,HRP,023821.80,190324,190.905,,0.971,1.295,,1.179,18,2,8.837,W*15
$GNRMC,023822.00,A,3737.7556061,N,12704.7384481,E,0.0,,190324,8.8,W,D*15
$PSSN,HRP,023822.00,190324,190.910,,0.989,1.296,,1.179,18,2,8.837,W*1E
$GNRMC,023822.20,A,3737.7556061,N,12704.7384457,E,0.0,,190324,8.8,W,D*1C
$PSSN,HRP,023822.20,190324,190.978,,0.982,1.299,,1.182,18,2,8.837,W*12
$GNRMC,023822.40,A,3737.7556064,N,12704.7384471,E,0.0,,190324,8.8,W,D*1B
$PSSN,HRP,023822.40,190324,190.806,,0.960,1.314,,1.196,18,2,8.837,W*11
$GNRMC,023822.60,A,3737.7556063,N,12704.7384481,E,0.0,,190324,8.8,W,D*11
$PSSN,HRP,023822.60,190324,190.623,,0.755,1.346,,1.226,18,2,8.837,W*1D
$GNRMC,023822.80,A,3737.7556069,N,12704.7384506,E,0.0,,190324,8.8,W,D*1B
$PSSN,HRP,023822.80,190324,190.764,,0.917,1.368,,1.244,18,2,8.837,W*11
$GNRMC,023823.00,A,3737.7556057,N,12704.7384484,E,0.0,,190324,8.8,W,D*14
$PSSN,HRP,023823.00,190324,190.571,,0.772,1.370,,1.247,18,2,8.837,W*19
$GNRMC,023823.20,A,3737.7556066,N,12704.7384516,E,0.0,,190324,8.8,W,D*1E
$PSSN,HRP,023823.20,190324,190.565,,0.723,1.385,,1.260,18,2,8.837,W*15
$GNRMC,023823.40,A,3737.7556064,N,12704.7384493,E,0.0,,190324,8.8,W,D*16
$PSSN,HRP,023823.40,190324,190.569,,0.734,1.396,,1.269,18,2,8.837,W*12
$GNRMC,023823.60,A,3737.7556062,N,12704.7384495,E,0.0,,190324,8.8,W,D*14
$PSSN,HRP,023823.60,190324,190.615,,0.673,1.368,,1.244,18,2,8.837,W*14
$GNRMC,023823.80,A,3737.7556070,N,12704.7384498,E,0.0,,190324,8.8,W,D*14
$PSSN,HRP,023823.80,190324,190.561,,0.764,1.341,,1.219,18,2,8.837,W*1E
$GNRMC,023824.00,A,3737.7556071,N,12704.7384505,E,0.0,,190324,8.8,W,D*1F
$PSSN,HRP,023824.00,190324,190.691,,0.757,1.340,,1.218,18,2,8.837,W*1D
$GNRMC,023824.20,A,3737.7556071,N,12704.7384491,E,0.0,,190324,8.8,W,D*11
$PSSN,HRP,023824.20,190324,190.455,,0.567,1.336,,1.215,18,2,8.837,W*18
$GNRMC,023824.40,A,3737.7556071,N,12704.7384467,E,0.0,,190324,8.8,W,D*1E
$PSSN,HRP,023824.40,190324,190.302,,0.580,1.328,,1.208,18,2,8.837,W*11
$GNRMC,023824.60,A,3737.7556076,N,12704.7384448,E,0.0,,190324,8.8,W,D*16
$PSSN,HRP,023824.60,190324,190.250,,0.401,1.317,,1.199,18,2,8.837,W*1A
$GNRMC,023824.80,A,3737.7556075,N,12704.7384475,E,0.0,,190324,8.8,W,D*15
$PSSN,HRP,023824.80,190324,190.306,,0.439,1.314,,1.197,18,2,8.837,W*10
$GNRMC,023825.00,A,3737.7556079,N,12704.7384453,E,0.0,,190324,8.8,W,D*14
$PSSN,HRP,023825.00,190324,190.179,,0.306,1.314,,1.197,18,2,8.837,W*18
$GNRMC,023825.20,A,3737.7556073,N,12704.7384461,E,0.0,,190324,8.8,W,D*1D
$PSSN,HRP,023825.20,190324,190.351,,0.416,1.312,,1.195,18,2,8.837,W*10
$GNRMC,023825.40,A,3737.7556073,N,12704.7384492,E,0.0,,190324,8.8,W,D*17
$PSSN,HRP,023825.40,190324,190.255,,0.480,1.303,,1.187,18,2,8.837,W*1F
$GNRMC,023825.60,A,3737.7556073,N,12704.7384492,E,0.0,,190324,8.8,W,D*15
$PSSN,HRP,023825.60,190324,190.288,,0.548,1.297,,1.182,18,2,8.837,W*11
$GNRMC,023825.80,A,3737.7556075,N,12704.7384491,E,0.0,,190324,8.8,W,D*1E
$PSSN,HRP,023825.80,190324,190.500,,0.544,1.291,,1.176,18,2,8.837,W*19
$GNRMC,023826.00,A,3737.7556074,N,12704.7384486,E,0.0,,190324,8.8,W,D*12
$PSSN,HRP,023826.00,190324,190.380,,0.423,1.291,,1.177,18,2,8.837,W*1D
$GNRMC,023826.20,A,3737.7556068,N,12704.7384486,E,0.0,,190324,8.8,W,D*1D
$PSSN,HRP,023826.20,190324,190.445,,0.514,1.293,,1.179,18,2,8.837,W*18
$GNRMC,023826.40,A,3737.7556062,N,12704.7384483,E,0.0,,190324,8.8,W,D*14
$PSSN,HRP,023826.40,190324,190.523,,0.561,1.302,,1.186,18,2,8.837,W*14
$GNRMC,023826.60,A,3737.7556059,N,12704.7384425,E,0.0,,190324,8.8,W,D*12
$PSSN,HRP,023826.60,190324,190.412,,0.532,1.328,,1.206,18,2,8.837,W*10
$GNRMC,023826.80,A,3737.7556053,N,12704.7384436,E,0.0,,190324,8.8,W,D*14
$PSSN,HRP,023826.80,190324,190.572,,0.632,1.340,,1.216,18,2,8.837,W*15
$GNRMC,023827.00,A,3737.7556043,N,12704.7384456,E,0.0,,190324,8.8,W,D*1A
$PSSN,HRP,023827.00,190324,190.665,,0.671,1.342,,1.218,18,2,8.837,W*12
$GNRMC,023827.20,A,3737.7556052,N,12704.7384453,E,0.0,,190324,8.8,W,D*1D
$PSSN,HRP,023827.20,190324,190.524,,0.594,1.351,,1.225,18,2,8.837,W*12
$GNRMC,023827.40,A,3737.7556050,N,12704.7384480,E,0.0,,190324,8.8,W,D*17
$PSSN,HRP,023827.40,190324,190.692,,0.649,1.355,,1.228,18,2,8.837,W*10
$GNRMC,023827.60,A,3737.7556056,N,12704.7384451,E,0.0,,190324,8.8,W,D*1F
$PSSN,HRP,023827.60,190324,190.363,,0.513,1.327,,1.205,18,2,8.837,W*1F
$GNRMC,023827.80,A,3737.7556065,N,12704.7384460,E,0.0,,190324,8.8,W,D*13
$PSSN,HRP,023827.80,190324,190.297,,0.511,1.300,,1.183,18,2,8.837,W*11
$GNRMC,023828.00,A,3737.7556058,N,12704.7384527,E,0.0,,190324,8.8,W,D*18
$PSSN,HRP,023828.00,190324,190.474,,0.439,1.300,,1.184,18,2,8.837,W*11
$GNRMC,023828.20,A,3737.7556063,N,12704.7384503,E,0.0,,190324,8.8,W,D*14
$PSSN,HRP,023828.20,190324,190.409,,0.494,1.301,,1.184,18,2,8.837,W*1F
$GNRMC,023828.40,A,3737.7556066,N,12704.7384470,E,0.0,,190324,8.8,W,D*12
$PSSN,HRP,023828.40,190324,190.396,,0.415,1.307,,1.190,18,2,8.837,W*12
$GNRMC,023828.60,A,3737.7556063,N,12704.7384472,E,0.0,,190324,8.8,W,D*17
$PSSN,HRP,023828.60,190324,190.476,,0.481,1.320,,1.201,18,2,8.837,W*1A
$GNRMC,023828.80,A,3737.7556063,N,12704.7384452,E,0.0,,190324,8.8,W,D*1B
$PSSN,HRP,023828.80,190324,190.324,,0.396,1.325,,1.205,18,2,8.837,W*14
$GNRMC,023829.00,A,3737.7556064,N,12704.7384429,E,0.0,,190324,8.8,W,D*19
$PSSN,HRP,023829.00,190324,190.208,,0.377,1.326,,1.206,18,2,8.837,W*1D
$GNRMC,023829.20,A,3737.7556057,N,12704.7384490,E,0.0,,190324,8.8,W,D*19
$PSSN,HRP,023829.20,190324,190.337,,0.442,1.334,,1.213,18,2,8.837,W*14
$GNRMC,023829.40,A,3737.7556056,N,12704.7384477,E,0.0,,190324,8.8,W,D*17
$PSSN,HRP,023829.40,190324,190.104,,0.198,1.337,,1.216,18,2,8.837,W*14
$GNRMC,023829.60,A,3737.7556051,N,12704.7384551,E,0.0,,190324,8.8,W,D*17
$PSSN,HRP,023829.60,190324,190.195,,0.085,1.331,,1.212,18,2,8.837,W*11
$GNRMC,023829.80,A,3737.7556048,N,12704.7384568,E,0.0,,190324,8.8,W,D*1B
$PSSN,HRP,023829.80,190324,190.287,,0.237,1.324,,1.206,18,2,8.837,W*15
$GNRMC,023830.00,A,3737.7556042,N,12704.7384527,E,0.0,,190324,8.8,W,D*1A
$PSSN,HRP,023830.00,190324,190.136,,0.238,1.325,,1.207,18,2,8.837,W*13
$GNRMC,023830.20,A,3737.7556045,N,12704.7384539,E,0.0,,190324,8.8,W,D*10
$PSSN,HRP,023830.20,190324,190.218,,0.218,1.319,,1.202,18,2,8.837,W*16
$GNRMC,023830.40,A,3737.7556047,N,12704.7384500,E,0.0,,190324,8.8,W,D*1E
$PSSN,HRP,023830.40,190324,190.062,,0.159,1.313,,1.198,18,2,8.837,W*13
$GNRMC,023830.60,A,3737.7556047,N,12704.7384518,E,0.0,,190324,8.8,W,D*15
$PSSN,HRP,023830.60,190324,190.059,,0.217,1.302,,1.188,18,2,8.837,W*11
$GNRMC,023830.80,A,3737.7556050,N,12704.7384465,E,0.0,,190324,8.8,W,D*16
$PSSN,HRP,023830.80,190324,189.951,,0.109,1.297,,1.184,18,2,8.837,W*1B
$GNRMC,023831.00,A,3737.7556064,N,12704.7384475,E,0.0,,190324,8.8,W,D*19
$PSSN,HRP,023831.00,190324,190.142,,0.124,1.293,,1.181,18,2,8.837,W*1E
$GNRMC,023831.20,A,3737.7556051,N,12704.7384487,E,0.0,,190324,8.8,W,D*10
$PSSN,HRP,023831.20,190324,189.900,,0.056,1.298,,1.185,18,2,8.837,W*11
$GNRMC,023831.40,A,3737.7556060,N,12704.7384566,E,0.0,,190324,8.8,W,D*1A
$PSSN,HRP,023831.40,190324,189.996,,-0.022,1.298,,1.185,18,2,8.837,W*36
$GNRMC,023831.60,A,3737.7556063,N,12704.7384522,E,0.0,,190324,8.8,W,D*1B
$PSSN,HRP,023831.60,190324,189.914,,-0.023,1.307,,1.192,18,2,8.837,W*3E
$GNRMC,023831.80,A,3737.7556071,N,12704.7384569,E,0.0,,190324,8.8,W,D*19
$PSSN,HRP,023831.80,190324,189.703,,-0.177,1.315,,1.198,18,2,8.837,W*31
$GNRMC,023832.00,A,3737.7556076,N,12704.7384604,E,0.0,,190324,8.8,W,D*1D
$PSSN,HRP,023832.00,190324,189.887,,-0.028,1.313,,1.196,18,2,8.837,W*3A
$GNRMC,023832.20,A,3737.7556069,N,12704.7384594,E,0.0,,190324,8.8,W,D*1B
$PSSN,HRP,023832.20,190324,190.060,,-0.016,1.317,,1.200,18,2,8.837,W*34
$GNRMC,023832.40,A,3737.7556066,N,12704.7384611,E,0.0,,190324,8.8,W,D*1C
$PSSN,HRP,023832.40,190324,189.980,,0.132,1.313,,1.195,18,2,8.837,W*1C
$GNRMC,023832.60,A,3737.7556065,N,12704.7384598,E,0.0,,190324,8.8,W,D*1F
$PSSN,HRP,023832.60,190324,190.134,,0.223,1.291,,1.176,18,2,8.837,W*14
$GNRMC,023832.80,A,3737.7556058,N,12704.7384597,E,0.0,,190324,8.8,W,D*10
$PSSN,HRP,023832.80,190324,190.205,,0.298,1.276,,1.163,18,2,8.837,W*16
$GNRMC,023833.00,A,3737.7556059,N,12704.7384572,E,0.0,,190324,8.8,W,D*13
$PSSN,HRP,023833.00,190324,190.220,,0.435,1.275,,1.162,18,2,8.837,W*1B
$GNRMC,023833.20,A,3737.7556055,N,12704.7384617,E,0.0,,190324,8.8,W,D*1D
$PSSN,HRP,023833.20,190324,190.562,,0.518,1.277,,1.163,18,2,8.837,W*15
$GNRMC,023833.40,A,3737.7556060,N,12704.7384579,E,0.0,,190324,8.8,W,D*16
$PSSN,HRP,023833.40,190324,190.314,,0.520,1.289,,1.174,18,2,8.837,W*18
$GNRMC,023833.60,A,3737.7556059,N,12704.7384615,E,0.0,,190324,8.8,W,D*17
$PSSN,HRP,023833.60,190324,190.455,,0.394,1.310,,1.194,18,2,8.837,W*1E
$GNRMC,023833.80,A,3737.7556063,N,12704.7384574,E,0.0,,190324,8.8,W,D*14
$PSSN,HRP,023833.80,190324,190.366,,0.499,1.328,,1.209,18,2,8.837,W*11
$GNRMC,023834.00,A,3737.7556064,N,12704.7384544,E,0.0,,190324,8.8,W,D*1F
$PSSN,HRP,023834.00,190324,190.345,,0.366,1.328,,1.210,18,2,8.837,W*10
$GNRMC,023834.20,A,3737.7556065,N,12704.7384586,E,0.0,,190324,8.8,W,D*12
$PSSN,HRP,023834.20,190324,190.093,,0.170,1.340,,1.221,18,2,8.837,W*13
$GNRMC,023834.40,A,3737.7556064,N,12704.7384579,E,0.0,,190324,8.8,W,D*15
$PSSN,HRP,023834.40,190324,190.105,,0.160,1.344,,1.225,18,2,8.837,W*1A
$GNRMC,023834.60,A,3737.7556058,N,12704.7384580,E,0.0,,190324,8.8,W,D*1E
$PSSN,HRP,023834.60,190324,190.105,,0.135,1.321,,1.205,18,2,8.837,W*19
$GNRMC,023834.80,A,3737.7556062,N,12704.7384598,E,0.0,,190324,8.8,W,D*10
$PSSN,HRP,023834.80,190324,190.213,,0.100,1.297,,1.183,18,2,8.837,W*14
$GNRMC,023835.00,A,3737.7556062,N,12704.7384583,E,0.0,,190324,8.8,W,D*13
$PSSN,HRP,023835.00,190324,189.982,,0.106,1.297,,1.183,18,2,8.837,W*10
$GNRMC,023835.20,A,3737.7556060,N,12704.7384535,E,0.0,,190324,8.8,W,D*1E
$PSSN,HRP,023835.20,190324,190.164,,0.226,1.300,,1.186,18,2,8.837,W*11
$GNRMC,023835.40,A,3737.7556068,N,12704.7384504,E,0.0,,190324,8.8,W,D*12
$PSSN,HRP,023835.40,190324,190.228,,0.215,1.301,,1.188,18,2,8.837,W*13
$GNRMC,023835.60,A,3737.7556078,N,12704.7384525,E,0.0,,190324,8.8,W,D*12
$PSSN,HRP,023835.60,190324,190.292,,0.206,1.305,,1.193,18,2,8.837,W*1C
$GNRMC,023835.80,A,3737.7556075,N,12704.7384498,E,0.0,,190324,8.8,W,D*16
$PSSN,HRP,023835.80,190324,190.320,,0.303,1.311,,1.198,18,2,8.837,W*10
$GNRMC,023836.00,A,3737.7556074,N,12704.7384477,E,0.0,,190324,8.8,W,D*1D
$PSSN,HRP,023836.00,190324,190.334,,0.281,1.308,,1.196,18,2,8.837,W*13
$GNRMC,023836.20,A,3737.7556080,N,12704.7384477,E,0.0,,190324,8.8,W,D*14
$PSSN,HRP,023836.20,190324,190.624,,0.542,1.312,,1.200,18,2,8.837,W*1A
$GNRMC,023836.40,A,3737.7556080,N,12704.7384458,E,0.0,,190324,8.8,W,D*1F
$PSSN,HRP,023836.40,190324,190.643,,0.450,1.312,,1.200,18,2,8.837,W*1F
$GNRMC,023836.60,A,3737.7556073,N,12704.7384519,E,0.0,,190324,8.8,W,D*15
$PSSN,HRP,023836.60,190324,190.667,,0.531,1.311,,1.197,18,2,8.837,W*13
$GNRMC,023836.80,A,3737.7556087,N,12704.7384473,E,0.0,,190324,8.8,W,D*1D
$PSSN,HRP,023836.80,190324,190.709,,0.653,1.307,,1.190,18,2,8.837,W*13
$GNRMC,023837.00,A,3737.7556084,N,12704.7384465,E,0.0,,190324,8.8,W,D*10
$PSSN,HRP,023837.00,190324,190.859,,0.774,1.308,,1.192,18,2,8.837,W*19
$GNRMC,023837.20,A,3737.7556085,N,12704.7384446,E,0.0,,190324,8.8,W,D*12
$PSSN,HRP,023837.20,190324,190.688,,0.580,1.306,,1.190,18,2,8.837,W*1C
$GNRMC,023837.40,A,3737.7556087,N,12704.7384463,E,0.0,,190324,8.8,W,D*11
$PSSN,HRP,023837.40,190324,190.647,,0.573,1.307,,1.190,18,2,8.837,W*14
$GNRMC,023837.60,A,3737.7556087,N,12704.7384461,E,0.0,,190324,8.8,W,D*11
$PSSN,HRP,023837.60,190324,190.631,,0.476,1.310,,1.194,18,2,8.837,W*11
$GNRMC,023837.80,A,3737.7556081,N,12704.7384449,E,0.0,,190324,8.8,W,D*13
$PSSN,HRP,023837.80,190324,190.420,,0.305,1.310,,1.194,18,2,8.837,W*1E
$GNRMC,023838.00,A,3737.7556089,N,12704.7384435,E,0.0,,190324,8.8,W,D*17
$PSSN,HRP,023838.00,190324,190.386,,0.343,1.311,,1.195,18,2,8.837,W*10
$GNRMC,023838.20,A,3737.7556080,N,12704.7384474,E,0.0,,190324,8.8,W,D*19
$PSSN,HRP,023838.20,190324,190.459,,0.474,1.310,,1.193,18,2,8.837,W*13
$GNRMC,023838.40,A,3737.7556081,N,12704.7384489,E,0.0,,190324,8.8,W,D*1C
$PSSN,HRP,023838.40,190324,190.471,,0.413,1.307,,1.191,18,2,8.837,W*1A
$GNRMC,023838.60,A,3737.7556067,N,12704.7384512,E,0.0,,190324,8.8,W,D*15
$PSSN,HRP,023838.60,190324,190.648,,0.512,1.301,,1.185,18,2,8.837,W*13
$GNRMC,023838.80,A,3737.7556058,N,12704.7384511,E,0.0,,190324,8.8,W,D*14
$PSSN,HRP,023838.80,190324,190.600,,0.414,1.297,,1.182,18,2,8.837,W*1F
$GNRMC,023839.00,A,3737.7556057,N,12704.7384556,E,0.0,,190324,8.8,W,D*11
$PSSN,HRP,023839.00,190324,190.718,,0.543,1.296,,1.181,18,2,8.837,W*1F
$GNRMC,023839.20,A,3737.7556067,N,12704.7384540,E,0.0,,190324,8.8,W,D*17
$PSSN,HRP,023839.20,190324,190.620,,0.518,1.296,,1.181,18,2,8.837,W*19
$GNRMC,023839.40,A,3737.7556074,N,12704.7384520,E,0.0,,190324,8.8,W,D*15
$PSSN,HRP,023839.40,190324,190.714,,0.517,1.296,,1.181,18,2,8.837,W*16
$GNRMC,023839.60,A,3737.7556076,N,12704.7384512,E,0.0,,190324,8.8,W,D*14
$PSSN,HRP,023839.60,190324,190.608,,0.479,1.297,,1.181,18,2,8.837,W*10
$GNRMC,023839.80,A,3737.7556093,N,12704.7384487,E,0.0,,190324,8.8,W,D*1C
$PSSN,HRP,023839.80,190324,190.791,,0.583,1.296,,1.180,18,2,8.837,W*1B
$GNRMC,023840.00,A,3737.7556097,N,12704.7384516,E,0.0,,190324,8.8,W,D*17
$PSSN,HRP,023840.00,190324,190.823,,0.636,1.297,,1.181,18,2,8.837,W*16
$GNRMC,023840.20,A,3737.7556096,N,12704.7384491,E,0.0,,190324,8.8,W,D*1A
$PSSN,HRP,023840.20,190324,190.932,,0.754,1.297,,1.180,18,2,8.837,W*11
$GNRMC,023840.40,A,3737.7556094,N,12704.7384486,E,0.0,,190324,8.8,W,D*18
$PSSN,HRP,023840.40,190324,190.712,,0.519,1.299,,1.183,18,2,8.837,W*1D
$GNRMC,023840.60,A,3737.7556098,N,12704.7384438,E,0.0,,190324,8.8,W,D*13
$PSSN,HRP,023840.60,190324,190.747,,0.679,1.302,,1.186,18,2,8.837,W*1C
$GNRMC,023840.80,A,3737.7556102,N,12704.7384434,E,0.0,,190324,8.8,W,D*13
$PSSN,HRP,023840.80,190324,190.785,,0.585,1.299,,1.185,18,2,8.837,W*1C
$GNRMC,023841.00,A,3737.7556093,N,12704.7384412,E,0.0,,190324,8.8,W,D*17
$PSSN,HRP,023841.00,190324,190.829,,0.702,1.302,,1.187,18,2,8.837,W*10
$GNRMC,023841.20,A,3737.7556098,N,12704.7384468,E,0.0,,190324,8.8,W,D*13
$PSSN,HRP,023841.20,190324,190.880,,0.704,1.302,,1.189,18,2,8.837,W*19
$GNRMC,023841.40,A,3737.7556091,N,12704.7384462,E,0.0,,190324,8.8,W,D*16
$PSSN,HRP,023841.40,190324,191.025,,0.801,1.312,,1.199,18,2,8.837,W*13
$GNRMC,023841.60,A,3737.7556093,N,12704.7384501,E,0.0,,190324,8.8,W,D*12
$PSSN,HRP,023841.60,190324,190.936,,0.844,1.326,,1.212,18,2,8.837,W*1D
$GNRMC,023841.80,A,3737.7556088,N,12704.7384510,E,0.0,,190324,8.8,W,D*16
$PSSN,HRP,023841.80,190324,191.145,,0.931,1.333,,1.219,18,2,8.837,W*12
$GNRMC,023842.00,A,3737.7556091,N,12704.7384569,E,0.0,,190324,8.8,W,D*1B
$PSSN,HRP,023842.00,190324,190.993,,0.863,1.334,,1.220,18,2,8.837,W*10
$GNRMC,023842.20,A,3737.7556084,N,12704.7384515,E,0.0,,190324,8.8,W,D*16
$PSSN,HRP,023842.20,190324,191.088,,0.833,1.339,,1.225,18,2,8.837,W*1D
$GNRMC,023842.40,A,3737.7556084,N,12704.7384517,E,0.0,,190324,8.8,W,D*12
$PSSN,HRP,023842.40,190324,190.948,,0.740,1.338,,1.223,18,2,8.837,W*13
$GNRMC,023842.60,A,3737.7556085,N,12704.7384492,E,0.0,,190324,8.8,W,D*1D
$PSSN,HRP,023842.60,190324,190.871,,0.664,1.313,,1.198,18,2,8.837,W*17
$GNRMC,023842.80,A,3737.7556074,N,12704.7384465,E,0.0,,190324,8.8,W,D*15
$PSSN,HRP,023842.80,190324,190.902,,0.648,1.293,,1.179,18,2,8.837,W*14
$GNRMC,023843.00,A,3737.7556086,N,12704.7384429,E,0.0,,190324,8.8,W,D*19
$PSSN,HRP,023843.00,190324,190.808,,0.713,1.294,,1.178,18,2,8.837,W*1F
$GNRMC,023843.20,A,3737.7556079,N,12704.7384439,E,0.0,,190324,8.8,W,D*1A
$PSSN,HRP,023843.20,190324,190.705,,0.557,1.294,,1.179,18,2,8.837,W*1C
$GNRMC,023843.40,A,3737.7556074,N,12704.7384471,E,0.0,,190324,8.8,W,D*1D
$PSSN,HRP,023843.40,190324,190.862,,0.773,1.292,,1.178,18,2,8.837,W*17
$GNRMC,023843.60,A,3737.7556070,N,12704.7384488,E,0.0,,190324,8.8,W,D*1D
$PSSN,HRP,023843.60,190324,190.772,,0.684,1.292,,1.178,18,2,8.837,W*12
$GNRMC,023843.80,A,3737.7556063,N,12704.7384514,E,0.0,,190324,8.8,W,D*15
$PSSN,HRP,023843.80,190324,190.709,,0.702,1.292,,1.178,18,2,8.837,W*1F
$GNRMC,023844.00,A,3737.7556063,N,12704.7384528,E,0.0,,190324,8.8,W,D*15
$PSSN,HRP,023844.00,190324,190.780,,0.688,1.291,,1.178,18,2,8.837,W*11
$GNRMC,023844.20,A,3737.7556072,N,12704.7384538,E,0.0,,190324,8.8,W,D*16
$PSSN,HRP,023844.20,190324,190.810,,0.755,1.293,,1.179,18,2,8.837,W*17
$GNRMC,023844.40,A,3737.7556061,N,12704.7384563,E,0.0,,190324,8.8,W,D*1C
$PSSN,HRP,023844.40,190324,190.760,,0.607,1.300,,1.185,18,2,8.837,W*17
$GNRMC,023844.60,A,3737.7556067,N,12704.7384544,E,0.0,,190324,8.8,W,D*1D
$PSSN,HRP,023844.60,190324,190.638,,0.548,1.309,,1.192,18,2,8.837,W*1E
$GNRMC,023844.80,A,3737.7556066,N,12704.7384533,E,0.0,,190324,8.8,W,D*12
$PSSN,HRP,023844.80,190324,190.768,,0.600,1.316,,1.198,18,2,8.837,W*1F
$GNRMC,023845.00,A,3737.7556067,N,12704.7384550,E,0.0,,190324,8.8,W,D*1F
$PSSN,HRP,023845.00,190324,190.554,,0.515,1.318,,1.199,18,2,8.837,W*13
$GNRMC,023845.20,A,3737.7556064,N,12704.7384497,E,0.0,,190324,8.8,W,D*14
$PSSN,HRP,023845.20,190324,190.539,,0.598,1.325,,1.205,18,2,8.837,W*17
$GNRMC,023845.40,A,3737.7556075,N,12704.7384513,E,0.0,,190324,8.8,W,D*1F
$PSSN,HRP,023845.40,190324,190.545,,0.499,1.333,,1.212,18,2,8.837,W*1B
$GNRMC,023845.60,A,3737.7556071,N,12704.7384528,E,0.0,,190324,8.8,W,D*11
$PSSN,HRP,023845.60,190324,190.698,,0.693,1.334,,1.215,18,2,8.837,W*12
$GNRMC,023845.80,A,3737.7556083,N,12704.7384491,E,0.0,,190324,8.8,W,D*11
$PSSN,HRP,023845.80,190324,190.623,,0.623,1.333,,1.217,18,2,8.837,W*12
$GNRMC,023846.00,A,3737.7556083,N,12704.7384461,E,0.0,,190324,8.8,W,D*15
$PSSN,HRP,023846.00,190324,190.758,,0.781,1.335,,1.218,18,2,8.837,W*14
$GNRMC,023846.20,A,3737.7556073,N,12704.7384494,E,0.0,,190324,8.8,W,D*12
$PSSN,HRP,023846.20,190324,190.895,,0.795,1.334,,1.219,18,2,8.837,W*1D
$GNRMC,023846.40,A,3737.7556070,N,12704.7384504,E,0.0,,190324,8.8,W,D*1F
$PSSN,HRP,023846.40,190324,190.804,,0.856,1.330,,1.216,18,2,8.837,W*18
$GNRMC,023846.60,A,3737.7556070,N,12704.7384496,E,0.0,,190324,8.8,W,D*17
$PSSN,HRP,023846.60,190324,190.870,,0.933,1.327,,1.211,18,2,8.837,W*1A
$GNRMC,023846.80,A,3737.7556068,N,12704.7384529,E,0.0,,190324,8.8,W,D*15
$PSSN,HRP,023846.80,190324,190.865,,0.871,1.324,,1.206,18,2,8.837,W*12
$GNRMC,023847.00,A,3737.7556063,N,12704.7384550,E,0.0,,190324,8.8,W,D*19
$PSSN,HRP,023847.00,190324,190.938,,0.965,1.325,,1.208,18,2,8.837,W*19
$GNRMC,023847.20,A,3737.7556064,N,12704.7384503,E,0.0,,190324,8.8,W,D*1A
$PSSN,HRP,023847.20,190324,190.800,,0.896,1.322,,1.204,18,2,8.837,W*17
$GNRMC,023847.40,A,3737.7556066,N,12704.7384489,E,0.0,,190324,8.8,W,D*1D
$PSSN,HRP,023847.40,190324,190.816,,0.813,1.316,,1.200,18,2,8.837,W*18
$GNRMC,023847.60,A,3737.7556064,N,12704.7384482,E,0.0,,190324,8.8,W,D*16
$PSSN,HRP,023847.60,190324,190.783,,0.737,1.309,,1.196,18,2,8.837,W*12
$GNRMC,023847.80,A,3737.7556064,N,12704.7384442,E,0.0,,190324,8.8,W,D*14
$PSSN,HRP,023847.80,190324,190.515,,0.583,1.306,,1.195,18,2,8.837,W*10
$GNRMC,023848.00,A,3737.7556067,N,12704.7384418,E,0.0,,190324,8.8,W,D*1F
$PSSN,HRP,023848.00,190324,190.463,,0.516,1.306,,1.195,18,2,8.837,W*1B
$GNRMC,023848.20,A,3737.7556061,N,12704.7384415,E,0.0,,190324,8.8,W,D*16
$PSSN,HRP,023848.20,190324,190.777,,0.724,1.304,,1.193,18,2,8.837,W*18
$GNRMC,023848.40,A,3737.7556059,N,12704.7384394,E,0.0,,190324,8.8,W,D*15
$PSSN,HRP,023848.40,190324,190.641,,0.714,1.305,,1.195,18,2,8.837,W*1E
$GNRMC,023848.60,A,3737.7556049,N,12704.7384403,E,0.0,,190324,8.8,W,D*1F
$PSSN,HRP,023848.60,190324,190.908,,0.866,1.302,,1.193,18,2,8.837,W*15
$GNRMC,023848.80,A,3737.7556048,N,12704.7384417,E,0.0,,190324,8.8,W,D*15
$PSSN,HRP,023848.80,190324,190.853,,0.868,1.302,,1.193,18,2,8.837,W*1A
$GNRMC,023849.00,A,3737.7556050,N,12704.7384379,E,0.0,,190324,8.8,W,D*1A
$PSSN,HRP,023849.00,190324,190.988,,1.027,1.301,,1.192,18,2,8.837,W*14
$GNRMC,023849.20,A,3737.7556057,N,12704.7384404,E,0.0,,190324,8.8,W,D*12
$PSSN,HRP,023849.20,190324,190.914,,1.014,1.302,,1.192,18,2,8.837,W*10
$GNRMC,023849.40,A,3737.7556059,N,12704.7384428,E,0.0,,190324,8.8,W,D*14
$PSSN,HRP,023849.40,190324,190.861,,0.841,1.302,,1.192,18,2,8.837,W*1C
$GNRMC,023849.60,A,3737.7556072,N,12704.7384436,E,0.0,,190324,8.8,W,D*10
$PSSN,HRP,023849.60,190324,190.644,,0.720,1.302,,1.190,18,2,8.837,W*1D
$GNRMC,023849.80,A,3737.7556074,N,12704.7384467,E,0.0,,190324,8.8,W,D*1C
$PSSN,HRP,023849.80,190324,190.655,,0.663,1.303,,1.190,18,2,8.837,W*14
$GNRMC,023850.00,A,3737.7556089,N,12704.7384477,E,0.0,,190324,8.8,W,D*1F
$PSSN,HRP,023850.00,190324,190.546,,0.708,1.302,,1.189,18,2,8.837,W*10
$GNRMC,023850.20,A,3737.7556081,N,12704.7384521,E,0.0,,190324,8.8,W,D*17
$PSSN,HRP,023850.20,190324,190.701,,0.816,1.304,,1.190,18,2,8.837,W*1D
$GNRMC,023850.40,A,3737.7556076,N,12704.7384488,E,0.0,,190324,8.8,W,D*1B
$PSSN,HRP,023850.40,190324,190.715,,0.751,1.305,,1.190,18,2,8.837,W*13
$GNRMC,023850.60,A,3737.7556077,N,12704.7384516,E,0.0,,190324,8.8,W,D*1E
$PSSN,HRP,023850.60,190324,190.713,,0.715,1.308,,1.192,18,2,8.837,W*18
$GNRMC,023850.80,A,3737.7556076,N,12704.7384487,E,0.0,,190324,8.8,W,D*18
$PSSN,HRP,023850.80,190324,190.710,,0.731,1.312,,1.195,18,2,8.837,W*1F
$GNRMC,023851.00,A,3737.7556067,N,12704.7384547,E,0.0,,190324,8.8,W,D*1C
$PSSN,HRP,023851.00,190324,190.709,,0.765,1.311,,1.194,18,2,8.837,W*1D
$GNRMC,023851.20,A,3737.7556069,N,12704.7384475,E,0.0,,190324,8.8,W,D*10
$PSSN,HRP,023851.20,190324,190.699,,0.727,1.312,,1.195,18,2,8.837,W*13
$GNRMC,023851.40,A,3737.7556078,N,12704.7384467,E,0.0,,190324,8.8,W,D*15
$PSSN,HRP,023851.40,190324,190.639,,0.745,1.312,,1.195,18,2,8.837,W*1B
$GNRMC,023851.60,A,3737.7556080,N,12704.7384431,E,0.0,,190324,8.8,W,D*13
$PSSN,HRP,023851.60,190324,190.649,,0.811,1.310,,1.195,18,2,8.837,W*12
$GNRMC,023851.80,A,3737.7556078,N,12704.7384401,E,0.0,,190324,8.8,W,D*19
$PSSN,HRP,023851.80,190324,190.636,,0.736,1.308,,1.195,18,2,8.837,W*17
$GNRMC,023852.00,A,3737.7556079,N,12704.7384335,E,0.0,,190324,8.8,W,D*13
$PSSN,HRP,023852.00,190324,190.642,,0.825,1.308,,1.195,18,2,8.837,W*12
$GNRMC,023852.20,A,3737.7556089,N,12704.7384381,E,0.0,,190324,8.8,W,D*11
$PSSN,HRP,023852.20,190324,190.508,,0.752,1.308,,1.196,18,2,8.837,W*11
$GNRMC,023852.40,A,3737.7556079,N,12704.7384415,E,0.0,,190324,8.8,W,D*12
$PSSN,HRP,023852.40,190324,190.691,,0.739,1.313,,1.201,18,2,8.837,W*1E
$GNRMC,023852.60,A,3737.7556084,N,12704.7384423,E,0.0,,190324,8.8,W,D*17
$PSSN,HRP,023852.60,190324,190.402,,0.718,1.326,,1.210,18,2,8.837,W*11
$GNRMC,023852.80,A,3737.7556087,N,12704.7384473,E,0.0,,190324,8.8,W,D*1F
$PSSN,HRP,023852.80,190324,190.621,,0.528,1.330,,1.214,18,2,8.837,W*1E
$GNRMC,023853.00,A,3737.7556081,N,12704.7384481,E,0.0,,190324,8.8,W,D*1D
$PSSN,HRP,023853.00,190324,190.441,,0.582,1.333,,1.217,18,2,8.837,W*13
$GNRMC,023853.20,A,3737.7556082,N,12704.7384478,E,0.0,,190324,8.8,W,D*1A
$PSSN,HRP,023853.20,190324,190.483,,0.607,1.338,,1.220,18,2,8.837,W*1E
$GNRMC,023853.40,A,3737.7556077,N,12704.7384483,E,0.0,,190324,8.8,W,D*12
$PSSN,HRP,023853.40,190324,190.453,,0.527,1.340,,1.220,18,2,8.837,W*1B
$GNRMC,023853.60,A,3737.7556063,N,12704.7384545,E,0.0,,190324,8.8,W,D*1E
$PSSN,HRP,023853.60,190324,190.682,,0.611,1.324,,1.206,18,2,8.837,W*17
$GNRMC,023853.80,A,3737.7556075,N,12704.7384521,E,0.0,,190324,8.8,W,D*15
$PSSN,HRP,023853.80,190324,190.623,,0.572,1.311,,1.195,18,2,8.837,W*1B
$GNRMC,023854.00,A,3737.7556071,N,12704.7384538,E,0.0,,190324,8.8,W,D*16
$PSSN,HRP,023854.00,190324,190.708,,0.719,1.310,,1.194,18,2,8.837,W*13
$GNRMC,023854.20,A,3737.7556072,N,12704.7384544,E,0.0,,190324,8.8,W,D*1C
$PSSN,HRP,023854.20,190324,190.623,,0.581,1.310,,1.195,18,2,8.837,W*1B
$GNRMC,023854.40,A,3737.7556077,N,12704.7384516,E,0.0,,190324,8.8,W,D*18
$PSSN,HRP,023854.40,190324,190.659,,0.776,1.313,,1.198,18,2,8.837,W*14
$GNRMC,023854.60,A,3737.7556079,N,12704.7384526,E,0.0,,190324,8.8,W,D*17
$PSSN,HRP,023854.60,190324,190.712,,0.660,1.317,,1.203,18,2,8.837,W*1B
$GNRMC,023854.80,A,3737.7556088,N,12704.7384525,E,0.0,,190324,8.8,W,D*14
$PSSN,HRP,023854.80,190324,190.670,,0.619,1.319,,1.206,18,2,8.837,W*15
$GNRMC,023855.00,A,3737.7556095,N,12704.7384533,E,0.0,,190324,8.8,W,D*16
$PSSN,HRP,023855.00,190324,190.685,,0.727,1.317,,1.204,18,2,8.837,W*16
$GNRMC,023855.20,A,3737.7556089,N,12704.7384521,E,0.0,,190324,8.8,W,D*1A
$PSSN,HRP,023855.20,190324,190.694,,0.814,1.321,,1.209,18,2,8.837,W*13
$GNRMC,023855.40,A,3737.7556086,N,12704.7384490,E,0.0,,190324,8.8,W,D*18
$PSSN,HRP,023855.40,190324,190.761,,0.778,1.332,,1.219,18,2,8.837,W*18
$GNRMC,023855.60,A,3737.7556088,N,12704.7384497,E,0.0,,190324,8.8,W,D*13
$PSSN,HRP,023855.60,190324,190.680,,0.779,1.345,,1.226,18,2,8.837,W*19
$GNRMC,023855.80,A,3737.7556082,N,12704.7384466,E,0.0,,190324,8.8,W,D*19
$PSSN,HRP,023855.80,190324,190.808,,0.796,1.356,,1.233,18,2,8.837,W*1E
$GNRMC,023856.00,A,3737.7556075,N,12704.7384478,E,0.0,,190324,8.8,W,D*15
$PSSN,HRP,023856.00,190324,190.766,,0.839,1.356,,1.232,18,2,8.837,W*19
$GNRMC,023856.20,A,3737.7556073,N,12704.7384476,E,0.0,,190324,8.8,W,D*1F
$PSSN,HRP,023856.20,190324,190.950,,0.813,1.363,,1.236,18,2,8.837,W*1A
$GNRMC,023856.40,A,3737.7556077,N,12704.7384432,E,0.0,,190324,8.8,W,D*1D
$PSSN,HRP,023856.40,190324,191.030,,0.990,1.361,,1.232,18,2,8.837,W*1E
$GNRMC,023856.60,A,3737.7556082,N,12704.7384429,E,0.0,,190324,8.8,W,D*1F
$PSSN,HRP,023856.60,190324,190.895,,0.913,1.340,,1.219,18,2,8.837,W*1B
$GNRMC,023856.80,A,3737.7556080,N,12704.7384428,E,0.0,,190324,8.8,W,D*12
$PSSN,HRP,023856.80,190324,191.029,,0.855,1.322,,1.208,18,2,8.837,W*1C
$GNRMC,023857.00,A,3737.7556081,N,12704.7384413,E,0.0,,190324,8.8,W,D*12
$PSSN,HRP,023857.00,190324,190.978,,0.889,1.324,,1.209,18,2,8.837,W*1F
$GNRMC,023857.20,A,3737.7556084,N,12704.7384403,E,0.0,,190324,8.8,W,D*14
$PSSN,HRP,023857.20,190324,190.885,,0.910,1.324,,1.209,18,2,8.837,W*1F
$GNRMC,023857.40,A,3737.7556087,N,12704.7384408,E,0.0,,190324,8.8,W,D*1A
$PSSN,HRP,023857.40,190324,190.836,,0.774,1.328,,1.212,18,2,8.837,W*1B
$GNRMC,023857.60,A,3737.7556077,N,12704.7384458,E,0.0,,190324,8.8,W,D*12
$PSSN,HRP,023857.60,190324,190.697,,0.633,1.332,,1.212,18,2,8.837,W*15
$GNRMC,023857.80,A,3737.7556078,N,12704.7384482,E,0.0,,190324,8.8,W,D*14
$PSSN,HRP,023857.80,190324,190.601,,0.524,1.337,,1.215,18,2,8.837,W*13
$GNRMC,023858.00,A,3737.7556077,N,12704.7384443,E,0.0,,190324,8.8,W,D*11
$PSSN,HRP,023858.00,190324,190.469,,0.689,1.337,,1.214,18,2,8.837,W*1D
$GNRMC,023858.20,A,3737.7556075,N,12704.7384522,E,0.0,,190324,8.8,W,D*17
$PSSN,HRP,023858.20,190324,190.420,,0.498,1.342,,1.218,18,2,8.837,W*1E
$GNRMC,023858.40,A,3737.7556075,N,12704.7384494,E,0.0,,190324,8.8,W,D*1D
$PSSN,HRP,023858.40,190324,190.570,,0.610,1.345,,1.218,18,2,8.837,W*19
$GNRMC,023858.60,A,3737.7556080,N,12704.7384552,E,0.0,,190324,8.8,W,D*1E
$PSSN,HRP,023858.60,190324,190.608,,0.711,1.340,,1.214,18,2,8.837,W*1E
$GNRMC,023858.80,A,3737.7556071,N,12704.7384545,E,0.0,,190324,8.8,W,D*18
$PSSN,HRP,023858.80,190324,190.598,,0.682,1.336,,1.212,18,2,8.837,W*16
$GNRMC,023859.00,A,3737.7556080,N,12704.7384604,E,0.0,,190324,8.8,W,D*19
$PSSN,HRP,023859.00,190324,190.641,,0.630,1.336,,1.212,18,2,8.837,W*11
$GNRMC,023859.20,A,3737.7556073,N,12704.7384566,E,0.0,,190324,8.8,W,D*10
$PSSN,HRP,023859.20,190324,190.519,,0.595,1.330,,1.207,18,2,8.837,W*13
$GNRMC,023859.40,A,3737.7556065,N,12704.7384577,E,0.0,,190324,8.8,W,D*11
$PSSN,HRP,023859.40,190324,190.546,,0.621,1.320,,1.200,18,2,8.837,W*15
$GNRMC,023859.60,A,3737.7556059,N,12704.7384517,E,0.0,,190324,8.8,W,D*1A
$PSSN,HRP,023859.60,190324,190.691,,0.671,1.307,,1.192,18,2,8.837,W*16
$GNRMC,023859.80,A,3737.7556054,N,12704.7384484,E,0.0,,190324,8.8,W,D*12
$PSSN,HRP,023859.80,190324,190.558,,0.730,1.302,,1.191,18,2,8.837,W*1C
$GNRMC,023900.00,A,3737.7556062,N,12704.7384411,E,0.0,,190324,8.8,W,D*1E
$PSSN,HRP,023900.00,190324,190.368,,0.525,1.301,,1.190,18,2,8.837,W*18
$GNRMC,023900.20,A,3737.7556057,N,12704.7384448,E,0.0,,190324,8.8,W,D*16
$PSSN,HRP,023900.20,190324,190.406,,0.638,1.300,,1.188,18,2,8.837,W*12
$GNRMC,023900.40,A,3737.7556056,N,12704.7384449,E,0.0,,190324,8.8,W,D*10
$PSSN,HRP,023900.40,190324,190.393,,0.578,1.301,,1.189,18,2,8.837,W*18
$GNRMC,023900.60,A,3737.7556069,N,12704.7384463,E,0.0,,190324,8.8,W,D*16
$PSSN,HRP,023900.60,190324,190.492,,0.757,1.303,,1.188,18,2,8.837,W*10
$GNRMC,023900.80,A,3737.7556063,N,12704.7384477,E,0.0,,190324,8.8,W,D*17
$PSSN,HRP,023900.80,190324,190.577,,0.678,1.307,,1.191,18,2,8.837,W*14
$GNRMC,023901.00,A,3737.7556072,N,12704.7384461,E,0.0,,190324,8.8,W,D*19
$PSSN,HRP,023901.00,190324,190.443,,0.670,1.309,,1.193,18,2,8.837,W*1F
$GNRMC,023901.20,A,3737.7556072,N,12704.7384472,E,0.0,,190324,8.8,W,D*19
$PSSN,HRP,023901.20,190324,190.522,,0.674,1.310,,1.193,18,2,8.837,W*17
$GNRMC,023901.40,A,3737.7556076,N,12704.7384487,E,0.0,,190324,8.8,W,D*11
$PSSN,HRP,023901.40,190324,190.484,,0.733,1.323,,1.202,18,2,8.837,W*15
$GNRMC,023901.60,A,3737.7556080,N,12704.7384472,E,0.0,,190324,8.8,W,D*10
$PSSN,HRP,023901.60,190324,190.529,,0.690,1.341,,1.219,18,2,8.837,W*17
$GNRMC,023901.80,A,3737.7556075,N,12704.7384471,E,0.0,,190324,8.8,W,D*17
$PSSN,HRP,023901.80,190324,190.587,,0.733,1.354,,1.231,18,2,8.837,W*1B
$GNRMC,023902.00,A,3737.7556078,N,12704.7384455,E,0.0,,190324,8.8,W,D*17
$PSSN,HRP,023902.00,190324,190.508,,0.762,1.354,,1.230,18,2,8.837,W*12
$GNRMC,023902.20,A,3737.7556077,N,12704.7384475,E,0.0,,190324,8.8,W,D*18
$PSSN,HRP,023902.20,190324,190.681,,0.833,1.363,,1.239,18,2,8.837,W*14
$GNRMC,023902.40,A,3737.7556076,N,12704.7384477,E,0.0,,190324,8.8,W,D*1D
$PSSN,HRP,023902.40,190324,190.713,,0.749,1.364,,1.241,18,2,8.837,W*12
$GNRMC,023902.60,A,3737.7556070,N,12704.7384427,E,0.0,,190324,8.8,W,D*1C
$PSSN,HRP,023902.60,190324,190.668,,0.723,1.342,,1.223,18,2,8.837,W*11
$GNRMC,023902.80,A,3737.7556071,N,12704.7384438,E,0.0,,190324,8.8,W,D*1D
$PSSN,HRP,023902.80,190324,190.976,,0.938,1.320,,1.204,18,2,8.837,W*1A
$GNRMC,023903.00,A,3737.7556062,N,12704.7384448,E,0.0,,190324,8.8,W,D*11
$PSSN,HRP,023903.00,190324,191.010,,0.885,1.320,,1.205,18,2,8.837,W*1D
$GNRMC,023903.20,A,3737.7556060,N,12704.7384442,E,0.0,,190324,8.8,W,D*1B
