$GNRMC,060821.00,A,3737.7564838,N,12704.7385408,E,0.0,,110324,8.8,W,D*1C
$PSSN,HRP,060821.00,110324,189.732,,0.014,0.539,,0.577,21,2,8.835,W*19
$GNRMC,060822.00,A,3737.7564864,N,12704.7385607,E,0.0,,110324,8.8,W,D*1B
$PSSN,HRP,060822.00,110324,189.716,,-0.074,0.542,,0.576,21,2,8.835,W*3A
$GNRMC,060823.00,A,3737.7564836,N,12704.7385627,E,0.0,,110324,8.8,W,D*1F
$PSSN,HRP,060823.00,110324,189.642,,-0.113,0.537,,0.574,21,2,8.835,W*3B
$GNRMC,060824.00,A,3737.7564758,N,12704.7385565,E,0.0,,110324,8.8,W,D*1A
$PSSN,HRP,060824.00,110324,189.754,,-0.032,0.534,,0.574,21,2,8.835,W*3B
$GNRMC,060825.00,A,3737.7564701,N,12704.7385530,E,0.0,,110324,8.8,W,D*17
$PSSN,HRP,060825.00,110324,189.804,,0.023,0.538,,0.574,21,2,8.835,W*11
$GNRMC,060826.00,A,3737.7564710,N,12704.7385458,E,0.0,,110324,8.8,W,D*1B
$PSSN,HRP,060826.00,110324,189.662,,-0.124,0.538,,0.575,21,2,8.835,W*36
$GNRMC,060827.00,A,3737.7564719,N,12704.7385401,E,0.0,,110324,8.8,W,D*1F
$PSSN,HRP,060827.00,110324,189.546,,-0.194,0.537,,0.574,21,2,8.835,W*37
$GNRMC,060828.00,A,3737.7564642,N,12704.7385266,E,0.0,,110324,8.8,W,D*18
$PSSN,HRP,060828.00,110324,189.574,,-0.198,0.535,,0.573,21,2,8.835,W*30
$GNRMC,060829.00,A,3737.7564563,N,12704.7385334,E,0.0,,110324,8.8,W,D*1F
$PSSN,HRP,060829.00,110324,189.650,,-0.042,0.535,,0.574,21,2,8.835,W*35
$GNRMC,060830.00,A,3737.7564510,N,12704.7385352,E,0.0,,110324,8.8,W,D*13
$PSSN,HRP,060830.00,110324,189.750,,-0.047,0.535,,0.572,21,2,8.835,W*3F
$GNRMC,060831.00,A,3737.7564458,N,12704.7385379,E,0.0,,110324,8.8,W,D*16
$PSSN,HRP,060831.00,110324,189.731,,-0.012,0.533,,0.573,21,2,8.835,W*3E
$GNRMC,060832.00,A,3737.7564395,N,12704.7385255,E,0.0,,110324,8.8,W,D*1C
$PSSN,HRP,060832.00,110324,189.730,,-0.104,0.536,,0.574,21,2,8.835,W*38
$GNRMC,060833.00,A,3737.7564353,N,12704.7385250,E,0.0,,110324,8.8,W,D*12
$PSSN,HRP,060833.00,110324,189.737,,-0.010,0.536,,0.573,21,2,8.835,W*3D
$GNRMC,060834.00,A,3737.7564339,N,12704.7385157,E,0.0,,110324,8.8,W,D*1D
$PSSN,HRP,060834.00,110324,189.600,,-0.158,0.539,,0.577,21,2,8.835,W*39
$GNRMC,060835.00,A,3737.7564350,N,12704.7385144,E,0.0,,110324,8.8,W,D*11
$PSSN,HRP,060835.00,110324,189.485,,-0.200,0.539,,0.576,21,2,8.835,W*38
$GNRMC,060836.00,A,3737.7564351,N,12704.7385134,E,0.0,,110324,8.8,W,D*14
$PSSN,HRP,060836.00,110324,189.611,,-0.159,0.536,,0.575,21,2,8.835,W*37
$GNRMC,060837.00,A,3737.7564349,N,12704.7385062,E,0.0,,110324,8.8,W,D*1E
$PSSN,HRP,060837.00,110324,189.683,,-0.004,0.538,,0.575,21,2,8.835,W*3A
$GNRMC,060838.00,A,3737.7564361,N,12704.7384999,E,0.0,,110324,8.8,W,D*17
$PSSN,HRP,060838.00,110324,189.741,,-0.003,0.536,,0.574,21,2,8.835,W*32
$GNRMC,060839.00,A,3737.7564391,N,12704.7385049,E,0.0,,110324,8.8,W,D*1C
$PSSN,HRP,060839.00,110324,189.805,,0.093,0.534,,0.573,21,2,8.835,W*1D
$GNRMC,060840.00,A,3737.7564407,N,12704.7385111,E,0.0,,110324,8.8,W,D*16
$PSSN,HRP,060840.00,110324,189.723,,0.074,0.535,,0.574,21,2,8.835,W*17
$GNRMC,060841.00,A,3737.7564469,N,12704.7385161,E,0.0,,110324,8.8,W,D*18
$PSSN,HRP,060841.00,110324,189.654,,-0.137,0.534,,0.574,21,2,8.835,W*3D
$GNRMC,060842.00,A,3737.7564476,N,12704.7385135,E,0.0,,110324,8.8,W,D*14
$PSSN,HRP,060842.00,110324,190.056,,0.202,0.496,,0.564,23,2,8.835,W*10
$GNRMC,060843.00,A,3737.7564498,N,12704.7385145,E,0.0,,110324,8.8,W,D*12
$PSSN,HRP,060843.00,110324,190.151,,0.129,0.497,,0.565,23,2,8.835,W*1D
$GNRMC,060844.00,A,3737.7564514,N,12704.7385145,E,0.0,,110324,8.8,W,D*10
$PSSN,HRP,060844.00,110324,190.306,,0.323,0.499,,0.563,23,2,8.835,W*1A
$GNRMC,060845.00,A,3737.7564524,N,12704.7385172,E,0.0,,110324,8.8,W,D*16
$PSSN,HRP,060845.00,110324,190.464,,0.264,0.496,,0.564,23,2,8.835,W*12
$GNRMC,060846.00,A,3737.7565000,N,12704.7387096,E,0.0,,110324,8.8,W,D*1E
$PSSN,HRP,060846.00,110324,190.081,,0.069,0.501,,0.567,23,2,8.835,W*1D
$GNRMC,060847.00,A,3737.7565399,N,12704.7388573,E,0.0,,110324,8.8,W,D*1D
$PSSN,HRP,060847.00,110324,190.024,,0.052,0.502,,0.565,23,2,8.835,W*1A
$GNRMC,060848.00,A,3737.7565566,N,12704.7388880,E,0.0,,110324,8.8,W,D*15
$PSSN,HRP,060848.00,110324,190.060,,0.153,0.499,,0.564,23,2,8.835,W*17
$GNRMC,060849.00,A,3737.7565691,N,12704.7388903,E,0.0,,110324,8.8,W,D*15
$PSSN,HRP,060849.00,110324,189.957,,0.060,0.499,,0.564,23,2,8.835,W*12
$GNRMC,060850.00,A,3737.7565710,N,12704.7388944,E,0.0,,110324,8.8,W,D*16
$PSSN,HRP,060850.00,110324,190.262,,0.203,0.498,,0.562,23,2,8.835,W*1F
$GNRMC,060851.00,A,3737.7565801,N,12704.7388898,E,0.0,,110324,8.8,W,D*18
$PSSN,HRP,060851.00,110324,189.972,,0.135,0.495,,0.561,23,2,8.835,W*14
$GNRMC,060852.00,A,3737.7565802,N,12704.7388956,E,0.0,,110324,8.8,W,D*1B
$PSSN,HRP,060852.00,110324,190.006,,0.003,0.496,,0.564,23,2,8.835,W*17
$GNRMC,060853.00,A,3737.7565189,N,12704.7387008,E,0.0,,110324,8.8,W,D*1D
$PSSN,HRP,060853.00,110324,189.952,,0.043,0.497,,0.563,23,2,8.835,W*14
$GNRMC,060854.00,A,3737.7564881,N,12704.7386191,E,0.0,,110324,8.8,W,D*1A
$PSSN,HRP,060854.00,110324,190.075,,0.173,0.493,,0.561,23,2,8.835,W*13
$GNRMC,060855.00,A,3737.7564567,N,12704.7385314,E,0.0,,110324,8.8,W,D*12
$PSSN,HRP,060855.00,110324,189.946,,0.036,0.494,,0.563,23,2,8.835,W*16
$GNRMC,060856.00,A,3737.7564469,N,12704.7385094,E,0.0,,110324,8.8,W,D*15
$PSSN,HRP,060856.00,110324,190.081,,0.144,0.498,,0.563,23,2,8.835,W*17
$GNRMC,060857.00,A,3737.7564432,N,12704.7384952,E,0.0,,110324,8.8,W,D*18
$PSSN,HRP,060857.00,110324,190.050,,0.127,0.499,,0.565,23,2,8.835,W*18
$GNRMC,060858.00,A,3737.7564408,N,12704.7384801,E,0.0,,110324,8.8,W,D*19
$PSSN,HRP,060858.00,110324,190.006,,0.018,0.495,,0.563,23,2,8.835,W*13
$GNRMC,060859.00,A,3737.7564337,N,12704.7384607,E,0.0,,110324,8.8,W,D*1B
$PSSN,HRP,060859.00,110324,189.965,,0.131,0.498,,0.565,23,2,8.835,W*17
$GNRMC,060900.00,A,3737.7564312,N,12704.7384518,E,0.0,,110324,8.8,W,D*1C
$PSSN,HRP,060900.00,110324,190.026,,0.126,0.496,,0.562,23,2,8.835,W*13
$GNRMC,060901.00,A,3737.7564268,N,12704.7384413,E,0.0,,110324,8.8,W,D*1B
$PSSN,HRP,060901.00,110324,190.099,,0.300,0.501,,0.570,22,2,8.835,W*1D
$GNRMC,060902.00,A,3737.7564210,N,12704.7384403,E,0.0,,110324,8.8,W,D*16
$PSSN,HRP,060902.00,110324,190.209,,0.275,0.497,,0.577,22,2,8.835,W*1F
$GNRMC,060903.00,A,3737.7564145,N,12704.7384238,E,0.0,,110324,8.8,W,D*1A
$PSSN,HRP,060903.00,110324,190.044,,0.127,0.493,,0.578,22,2,8.835,W*1A
$GNRMC,060904.00,A,3737.7564117,N,12704.7384271,E,0.0,,110324,8.8,W,D*17
$PSSN,HRP,060904.00,110324,190.016,,0.098,0.499,,0.577,22,2,8.835,W*1A
$GNRMC,060905.00,A,3737.7564107,N,12704.7384284,E,0.0,,110324,8.8,W,D*1D
$PSSN,HRP,060905.00,110324,190.118,,0.164,0.495,,0.575,22,2,8.835,W*18
$GNRMC,060906.00,A,3737.7564151,N,12704.7384455,E,0.0,,110324,8.8,W,D*17
$PSSN,HRP,060906.00,110324,190.025,,-0.003,0.499,,0.577,22,2,8.835,W*37
$GNRMC,060907.00,A,3737.7564190,N,12704.7384594,E,0.0,,110324,8.8,W,D*17
$PSSN,HRP,060907.00,110324,189.794,,-0.223,0.499,,0.577,22,2,8.835,W*33
$GNRMC,060908.00,A,3737.7564230,N,12704.7384729,E,0.0,,110324,8.8,W,D*15
$PSSN,HRP,060908.00,110324,189.917,,-0.025,0.496,,0.577,22,2,8.835,W*32
$GNRMC,060909.00,A,3737.7564274,N,12704.7384887,E,0.0,,110324,8.8,W,D*1F
$PSSN,HRP,060909.00,110324,189.958,,-0.046,0.495,,0.577,22,2,8.835,W*3E
$GNRMC,060910.00,A,3737.7564236,N,12704.7384945,E,0.0,,110324,8.8,W,D*1E
$PSSN,HRP,060910.00,110324,190.154,,0.102,0.501,,0.580,22,2,8.835,W*12
$GNRMC,060911.00,A,3737.7564210,N,12704.7384955,E,0.0,,110324,8.8,W,D*1A
$PSSN,HRP,060911.00,110324,190.049,,0.020,0.502,,0.581,22,2,8.835,W*1D
$GNRMC,060912.00,A,3737.7564173,N,12704.7384984,E,0.0,,110324,8.8,W,D*13
$PSSN,HRP,060912.00,110324,190.040,,0.095,0.501,,0.579,22,2,8.835,W*1D
$GNRMC,060913.00,A,3737.7564186,N,12704.7385011,E,0.0,,110324,8.8,W,D*1C
$PSSN,HRP,060913.00,110324,190.011,,0.042,0.493,,0.576,22,2,8.835,W*17
$GNRMC,060914.00,A,3737.7564260,N,12704.7384916,E,0.0,,110324,8.8,W,D*1F
$PSSN,HRP,060914.00,110324,190.051,,0.036,0.499,,0.579,22,2,8.835,W*12
$GNRMC,060915.00,A,3737.7564267,N,12704.7384832,E,0.0,,110324,8.8,W,D*1E
$PSSN,HRP,060915.00,110324,190.107,,0.133,0.494,,0.577,22,2,8.835,W*16
$GNRMC,060916.00,A,3737.7564140,N,12704.7384811,E,0.0,,110324,8.8,W,D*1A
$PSSN,HRP,060916.00,110324,189.969,,0.093,0.497,,0.576,22,2,8.835,W*14
$GNRMC,060917.00,A,3737.7564095,N,12704.7384784,E,0.0,,110324,8.8,W,D*11
$PSSN,HRP,060917.00,110324,190.193,,0.248,0.491,,0.574,22,2,8.835,W*10
$GNRMC,060918.00,A,3737.7564090,N,12704.7384706,E,0.0,,110324,8.8,W,D*11
$PSSN,HRP,060918.00,110324,190.099,,0.140,0.493,,0.576,22,2,8.835,W*1F
$GNRMC,060919.00,A,3737.7564114,N,12704.7384572,E,0.0,,110324,8.8,W,D*1C
$PSSN,HRP,060919.00,110324,190.137,,0.145,0.496,,0.575,22,2,8.835,W*18
$GNRMC,060920.00,A,3737.7564102,N,12704.7384520,E,0.0,,110324,8.8,W,D*16
$PSSN,HRP,060920.00,110324,190.078,,0.150,0.494,,0.575,22,2,8.835,W*1E
$GNRMC,060921.00,A,3737.7564167,N,12704.7384526,E,0.0,,110324,8.8,W,D*12
$PSSN,HRP,060921.00,110324,189.892,,-0.035,0.493,,0.576,22,2,8.835,W*30
$GNRMC,060922.00,A,3737.7564186,N,12704.7384521,E,0.0,,110324,8.8,W,D*19
$PSSN,HRP,060922.00,110324,190.004,,0.056,0.497,,0.576,22,2,8.835,W*10
$GNRMC,060923.00,A,3737.7564208,N,12704.7384380,E,0.0,,110324,8.8,W,D*10
$PSSN,HRP,060923.00,110324,190.055,,0.143,0.491,,0.575,22,2,8.835,W*15
$GNRMC,060924.00,A,3737.7564252,N,12704.7384386,E,0.0,,110324,8.8,W,D*1E
$PSSN,HRP,060924.00,110324,189.904,,-0.070,0.497,,0.578,22,2,8.835,W*30
$GNRMC,060925.00,A,3737.7564250,N,12704.7384359,E,0.0,,110324,8.8,W,D*1F
$PSSN,HRP,060925.00,110324,189.883,,-0.005,0.495,,0.576,22,2,8.835,W*31
$GNRMC,060926.00,A,3737.7564297,N,12704.7384336,E,0.0,,110324,8.8,W,D*1E
$PSSN,HRP,060926.00,110324,189.895,,-0.089,0.498,,0.577,22,2,8.835,W*3D
$GNRMC,060927.00,A,3737.7564320,N,12704.7384392,E,0.0,,110324,8.8,W,D*1C
$PSSN,HRP,060927.00,110324,190.133,,0.197,0.496,,0.577,22,2,8.835,W*1C
$GNRMC,060928.00,A,3737.7564320,N,12704.7384402,E,0.0,,110324,8.8,W,D*1D
$PSSN,HRP,060928.00,110324,189.831,,-0.133,0.499,,0.579,22,2,8.835,W*32
$GNRMC,060929.00,A,3737.7564233,N,12704.7384429,E,0.0,,110324,8.8,W,D*16
$PSSN,HRP,060929.00,110324,189.946,,0.046,0.500,,0.577,22,2,8.835,W*13
$GNRMC,060930.00,A,3737.7564216,N,12704.7384442,E,0.0,,110324,8.8,W,D*14
$PSSN,HRP,060930.00,110324,190.025,,0.034,0.491,,0.576,22,2,8.835,W*12
$GNRMC,060931.00,A,3737.7564142,N,12704.7384474,E,0.0,,110324,8.8,W,D*12
$PSSN,HRP,060931.00,110324,190.030,,0.003,0.495,,0.576,22,2,8.835,W*17
$GNRMC,060932.00,A,3737.7564129,N,12704.7384515,E,0.0,,110324,8.8,W,D*1A
$PSSN,HRP,060932.00,110324,190.015,,-0.041,0.495,,0.577,22,2,8.835,W*39
$GNRMC,060933.00,A,3737.7564120,N,12704.7384482,E,0.0,,110324,8.8,W,D*1D
$PSSN,HRP,060933.00,110324,189.950,,0.100,0.496,,0.576,22,2,8.835,W*13
$GNRMC,060934.00,A,3737.7564126,N,12704.7384482,E,0.0,,110324,8.8,W,D*1C
$PSSN,HRP,060934.00,110324,190.124,,0.120,0.501,,0.577,22,2,8.835,W*1B
$GNRMC,060935.00,A,3737.7564110,N,12704.7384374,E,0.0,,110324,8.8,W,D*16
$PSSN,HRP,060935.00,110324,189.957,,-0.007,0.496,,0.576,22,2,8.835,W*39
$GNRMC,060936.00,A,3737.7564141,N,12704.7384395,E,0.0,,110324,8.8,W,D*1E
$PSSN,HRP,060936.00,110324,189.717,,-0.223,0.504,,0.580,22,2,8.835,W*37
$GNRMC,060937.00,A,3737.7564131,N,12704.7384341,E,0.0,,110324,8.8,W,D*11
$PSSN,HRP,060937.00,110324,190.122,,0.117,0.496,,0.575,22,2,8.835,W*17
$GNRMC,060938.00,A,3737.7564083,N,12704.7384381,E,0.0,,110324,8.8,W,D*1A
$PSSN,HRP,060938.00,110324,189.923,,-0.061,0.494,,0.575,22,2,8.835,W*36
$GNRMC,060939.00,A,3737.7564071,N,12704.7384446,E,0.0,,110324,8.8,W,D*1A
$PSSN,HRP,060939.00,110324,190.090,,0.123,0.495,,0.576,22,2,8.835,W*16
$GNRMC,060940.00,A,3737.7564059,N,12704.7384394,E,0.0,,110324,8.8,W,D*16
$PSSN,HRP,060940.00,110324,190.022,,0.136,0.501,,0.578,22,2,8.835,W*17
$GNRMC,060941.00,A,3737.7564107,N,12704.7384423,E,0.0,,110324,8.8,W,D*16
$PSSN,HRP,060941.00,110324,189.935,,0.053,0.498,,0.577,23,2,8.835,W*1C
$GNRMC,060958.00,A,3737.7564114,N,12704.7384543,E,0.0,,110324,8.8,W,D*1B
$PSSN,HRP,060958.00,110324,190.033,,0.070,0.494,,0.575,23,2,8.835,W*1C
$GNRMC,060959.00,A,3737.7564125,N,12704.7384534,E,0.0,,110324,8.8,W,D*18
$PSSN,HRP,060959.00,110324,189.782,,-0.161,0.499,,0.577,23,2,8.835,W*3B
$GNRMC,061000.00,A,3737.7560520,N,12704.7386829,E,0.0,,110324,8.8,W,D*1A
$PSSN,HRP,061000.00,110324,189.971,,0.069,0.498,,0.576,22,2,8.835,W*18
$GNRMC,061001.00,A,3737.7560703,N,12704.7386752,E,0.0,,110324,8.8,W,D*1B
$PSSN,HRP,061001.00,110324,189.744,,-0.109,0.493,,0.575,23,2,8.835,W*32
$GNRMC,061002.00,A,3737.7560237,N,12704.7385837,E,0.0,,110324,8.8,W,D*15
$PSSN,HRP,061002.00,110324,189.877,,-0.055,0.491,,0.573,23,2,8.835,W*32
$GNRMC,061003.00,A,3737.7560662,N,12704.7386618,E,0.0,,110324,8.8,W,D*10
$PSSN,HRP,061003.00,110324,189.927,,0.047,0.491,,0.573,23,2,8.835,W*19
$GNRMC,061004.00,A,3737.7560906,N,12704.7387361,E,0.0,,110324,8.8,W,D*10
$PSSN,HRP,061004.00,110324,189.924,,-0.060,0.496,,0.575,23,2,8.835,W*34
$GNRMC,061005.00,A,3737.7561250,N,12704.7387628,E,0.0,,110324,8.8,W,D*10
$PSSN,HRP,061005.00,110324,189.845,,-0.022,0.492,,0.573,23,2,8.835,W*37
$GNRMC,061006.00,A,3737.7561524,N,12704.7387481,E,0.0,,110324,8.8,W,D*16
$PSSN,HRP,061006.00,110324,189.789,,-0.192,0.496,,0.576,23,2,8.835,W*30
$GNRMC,061007.00,A,3737.7561520,N,12704.7386800,E,0.0,,110324,8.8,W,D*17
$PSSN,HRP,061007.00,110324,189.958,,-0.000,0.493,,0.574,23,2,8.835,W*3E
$GNRMC,061008.00,A,3737.7561777,N,12704.7385511,E,0.0,,110324,8.8,W,D*16
$PSSN,HRP,061008.00,110324,189.980,,0.041,0.496,,0.576,22,2,8.835,W*1A
$GNRMC,061009.00,A,3737.7562099,N,12704.7384791,E,0.0,,110324,8.8,W,D*18
$PSSN,HRP,061009.00,110324,189.785,,-0.068,0.503,,0.577,22,2,8.835,W*3A
$GNRMC,061010.00,A,3737.7562321,N,12704.7384290,E,0.0,,110324,8.8,W,D*14
$PSSN,HRP,061010.00,110324,189.764,,-0.099,0.497,,0.576,22,2,8.835,W*3E
$GNRMC,061011.00,A,3737.7562428,N,12704.7383579,E,0.0,,110324,8.8,W,D*1C
$PSSN,HRP,061011.00,110324,189.835,,-0.090,0.501,,0.577,23,2,8.835,W*33
$GNRMC,061012.00,A,3737.7562539,N,12704.7382784,E,0.0,,110324,8.8,W,D*1F
$PSSN,HRP,061012.00,110324,190.142,,0.155,0.498,,0.576,22,2,8.835,W*15
$GNRMC,061013.00,A,3737.7562717,N,12704.7381932,E,0.0,,110324,8.8,W,D*10
$PSSN,HRP,061013.00,110324,190.006,,0.062,0.502,,0.576,22,2,8.835,W*12
$GNRMC,061014.00,A,3737.7563032,N,12704.7381317,E,0.0,,110324,8.8,W,D*1B
$PSSN,HRP,061014.00,110324,189.812,,-0.104,0.500,,0.576,22,2,8.835,W*3E
$GNRMC,061015.00,A,3737.7563378,N,12704.7381347,E,0.0,,110324,8.8,W,D*12
$PSSN,HRP,061015.00,110324,189.973,,0.084,0.499,,0.575,22,2,8.835,W*1F
$GNRMC,061016.00,A,3737.7563302,N,12704.7381705,E,0.0,,110324,8.8,W,D*1E
$PSSN,HRP,061016.00,110324,189.781,,-0.055,0.499,,0.575,22,2,8.835,W*3E
$GNRMC,061017.00,A,3737.7563315,N,12704.7381981,E,0.0,,110324,8.8,W,D*1B
$PSSN,HRP,061017.00,110324,189.787,,-0.122,0.498,,0.577,22,2,8.835,W*3B
$GNRMC,061018.00,A,3737.7563263,N,12704.7381868,E,0.0,,110324,8.8,W,D*12
$PSSN,HRP,061018.00,110324,189.741,,-0.197,0.497,,0.575,21,2,8.835,W*3E
$GNRMC,061019.00,A,3737.7563213,N,12704.7381848,E,0.0,,110324,8.8,W,D*16
$PSSN,HRP,061019.00,110324,189.947,,0.097,0.502,,0.575,22,2,8.835,W*15
$GNRMC,061020.00,A,3737.7563147,N,12704.7382105,E,0.0,,110324,8.8,W,D*1D
$PSSN,HRP,061020.00,110324,189.717,,-0.127,0.503,,0.577,22,2,8.835,W*30
$GNRMC,061021.00,A,3737.7563084,N,12704.7382555,E,0.0,,110324,8.8,W,D*13
$PSSN,HRP,061021.00,110324,189.877,,0.004,0.503,,0.576,22,2,8.835,W*14
$GNRMC,061022.00,A,3737.7562996,N,12704.7382774,E,0.0,,110324,8.8,W,D*1A
$PSSN,HRP,061022.00,110324,189.963,,0.104,0.494,,0.574,22,2,8.835,W*1F
$GNRMC,061023.00,A,3737.7562888,N,12704.7382964,E,0.0,,110324,8.8,W,D*1A
$PSSN,HRP,061023.00,110324,190.120,,0.222,0.490,,0.572,22,2,8.835,W*1C
$GNRMC,061024.00,A,3737.7562762,N,12704.7382810,E,0.0,,110324,8.8,W,D*14
$PSSN,HRP,061024.00,110324,190.063,,0.119,0.494,,0.574,22,2,8.835,W*14
$GNRMC,061025.00,A,3737.7562685,N,12704.7382643,E,0.0,,110324,8.8,W,D*15
$PSSN,HRP,061025.00,110324,190.063,,0.175,0.496,,0.575,22,2,8.835,W*1C
$GNRMC,061026.00,A,3737.7562766,N,12704.7382658,E,0.0,,110324,8.8,W,D*10
$PSSN,HRP,061026.00,110324,189.776,,-0.080,0.495,,0.575,22,2,8.835,W*31
$GNRMC,061027.00,A,3737.7562820,N,12704.7382561,E,0.0,,110324,8.8,W,D*15
$PSSN,HRP,061027.00,110324,189.908,,0.023,0.499,,0.576,22,2,8.835,W*1C
$GNRMC,061028.00,A,3737.7562802,N,12704.7382677,E,0.0,,110324,8.8,W,D*1E
$PSSN,HRP,061028.00,110324,189.960,,0.086,0.495,,0.576,22,2,8.835,W*1E
$GNRMC,061029.00,A,3737.7562823,N,12704.7382989,E,0.0,,110324,8.8,W,D*12
$PSSN,HRP,061029.00,110324,189.844,,-0.114,0.498,,0.577,22,2,8.835,W*33
$GNRMC,061030.00,A,3737.7562762,N,12704.7383122,E,0.0,,110324,8.8,W,D*18
$PSSN,HRP,061030.00,110324,189.770,,-0.044,0.497,,0.577,22,2,8.835,W*38
$GNRMC,061031.00,A,3737.7562834,N,12704.7383255,E,0.0,,110324,8.8,W,D*16
$PSSN,HRP,061031.00,110324,189.952,,0.044,0.496,,0.575,22,2,8.835,W*19
$GNRMC,061032.00,A,3737.7563055,N,12704.7383417,E,0.0,,110324,8.8,W,D*1B
$PSSN,HRP,061032.00,110324,189.976,,0.011,0.495,,0.576,22,2,8.835,W*1C
$GNRMC,061033.00,A,3737.7563318,N,12704.7383566,E,0.0,,110324,8.8,W,D*17
$PSSN,HRP,061033.00,110324,189.948,,-0.030,0.500,,0.579,22,2,8.835,W*3C
$GNRMC,061034.00,A,3737.7563424,N,12704.7383823,E,0.0,,110324,8.8,W,D*14
$PSSN,HRP,061034.00,110324,189.794,,-0.203,0.504,,0.578,22,2,8.835,W*33
$GNRMC,061035.00,A,3737.7563553,N,12704.7384184,E,0.0,,110324,8.8,W,D*17
$PSSN,HRP,061035.00,110324,189.781,,-0.169,0.496,,0.577,22,2,8.835,W*3C
$GNRMC,061036.00,A,3737.7563674,N,12704.7384465,E,0.0,,110324,8.8,W,D*18
$PSSN,HRP,061036.00,110324,189.812,,-0.127,0.497,,0.578,22,2,8.835,W*3E
$GNRMC,061037.00,A,3737.7563789,N,12704.7384612,E,0.0,,110324,8.8,W,D*18
$PSSN,HRP,061037.00,110324,189.831,,-0.091,0.496,,0.576,22,2,8.835,W*3D
$GNRMC,061038.00,A,3737.7563768,N,12704.7384689,E,0.0,,110324,8.8,W,D*1A
$PSSN,HRP,061038.00,110324,189.933,,0.025,0.500,,0.578,22,2,8.835,W*13
$GNRMC,061039.00,A,3737.7563737,N,12704.7384689,E,0.0,,110324,8.8,W,D*11
$PSSN,HRP,061039.00,110324,189.731,,-0.238,0.503,,0.579,22,2,8.835,W*3F
$GNRMC,061040.00,A,3737.7563746,N,12704.7384767,E,0.0,,110324,8.8,W,D*18
$PSSN,HRP,061040.00,110324,189.966,,-0.048,0.496,,0.578,22,2,8.835,W*34
$GNRMC,061041.00,A,3737.7563750,N,12704.7384843,E,0.0,,110324,8.8,W,D*17
$PSSN,HRP,061041.00,110324,189.830,,-0.171,0.496,,0.578,22,2,8.835,W*3C
$GNRMC,061042.00,A,3737.7563785,N,12704.7385068,E,0.0,,110324,8.8,W,D*1C
$PSSN,HRP,061042.00,110324,189.996,,0.010,0.492,,0.577,22,2,8.835,W*12
$GNRMC,061043.00,A,3737.7563788,N,12704.7385142,E,0.0,,110324,8.8,W,D*19
$PSSN,HRP,061043.00,110324,189.937,,-0.037,0.498,,0.578,22,2,8.835,W*35
$GNRMC,061044.00,A,3737.7563751,N,12704.7385003,E,0.0,,110324,8.8,W,D*1E
$PSSN,HRP,061044.00,110324,189.932,,0.045,0.494,,0.577,22,2,8.835,W*1C
$GNRMC,061045.00,A,3737.7563802,N,12704.7384926,E,0.0,,110324,8.8,W,D*19
$PSSN,HRP,061045.00,110324,190.068,,0.042,0.495,,0.577,22,2,8.835,W*15
$GNRMC,061046.00,A,3737.7563791,N,12704.7384766,E,0.0,,110324,8.8,W,D*15
$PSSN,HRP,061046.00,110324,189.880,,-0.033,0.502,,0.579,22,2,8.835,W*3A
$GNRMC,061047.00,A,3737.7563801,N,12704.7384727,E,0.0,,110324,8.8,W,D*17
$PSSN,HRP,061047.00,110324,189.938,,-0.080,0.500,,0.578,22,2,8.835,W*32
$GNRMC,061048.00,A,3737.7563887,N,12704.7384858,E,0.0,,110324,8.8,W,D*11
$PSSN,HRP,061048.00,110324,189.839,,-0.071,0.503,,0.578,22,2,8.835,W*30
$GNRMC,061049.00,A,3737.7563983,N,12704.7384902,E,0.0,,110324,8.8,W,D*1B
$PSSN,HRP,061049.00,110324,189.970,,0.033,0.500,,0.577,22,2,8.835,W*1A
$GNRMC,061050.00,A,3737.7564038,N,12704.7384884,E,0.0,,110324,8.8,W,D*12
$PSSN,HRP,061050.00,110324,189.930,,-0.021,0.497,,0.576,22,2,8.835,W*36
$GNRMC,061051.00,A,3737.7563985,N,12704.7384972,E,0.0,,110324,8.8,W,D*13
$PSSN,HRP,061051.00,110324,189.991,,-0.059,0.505,,0.578,22,2,8.835,W*37
$GNRMC,061052.00,A,3737.7563877,N,12704.7384888,E,0.0,,110324,8.8,W,D*18
$PSSN,HRP,061052.00,110324,189.862,,-0.063,0.501,,0.578,22,2,8.835,W*34
$GNRMC,061053.00,A,3737.7563880,N,12704.7384926,E,0.0,,110324,8.8,W,D*14
$PSSN,HRP,061053.00,110324,189.740,,-0.224,0.510,,0.580,22,2,8.835,W*3C
$GNRMC,061054.00,A,3737.7563902,N,12704.7384946,E,0.0,,110324,8.8,W,D*1E
$PSSN,HRP,061054.00,110324,189.870,,-0.109,0.504,,0.579,22,2,8.835,W*38
$GNRMC,061055.00,A,3737.7563974,N,12704.7385009,E,0.0,,110324,8.8,W,D*1D
$PSSN,HRP,061055.00,110324,189.512,,-0.395,0.537,,0.588,20,2,8.835,W*3B
$GNRMC,061056.00,A,3737.7564098,N,12704.7385146,E,0.0,,110324,8.8,W,D*18
$PSSN,HRP,061056.00,110324,189.746,,-0.119,0.503,,0.578,22,2,8.835,W*37
$GNRMC,061057.00,A,3737.7564161,N,12704.7385314,E,0.0,,110324,8.8,W,D*1B
$PSSN,HRP,061057.00,110324,190.026,,0.033,0.498,,0.577,22,2,8.835,W*17
$GNRMC,061058.00,A,3737.7564227,N,12704.7385348,E,0.0,,110324,8.8,W,D*1C
$PSSN,HRP,061058.00,110324,189.618,,-0.361,0.496,,0.578,22,2,8.835,W*33
$GNRMC,061059.00,A,3737.7564264,N,12704.7385240,E,0.0,,110324,8.8,W,D*13
$PSSN,HRP,061059.00,110324,189.842,,-0.163,0.497,,0.578,22,2,8.835,W*32
$GNRMC,061100.00,A,3737.7564179,N,12704.7385099,E,0.0,,110324,8.8,W,D*17
$PSSN,HRP,061100.00,110324,189.927,,-0.078,0.496,,0.577,22,2,8.835,W*38
$GNRMC,061101.00,A,3737.7564119,N,12704.7385007,E,0.0,,110324,8.8,W,D*17
$PSSN,HRP,061101.00,110324,189.989,,0.050,0.494,,0.575,22,2,8.835,W*1A
$GNRMC,061102.00,A,3737.7564226,N,12704.7385153,E,0.0,,110324,8.8,W,D*1B
$PSSN,HRP,061102.00,110324,189.820,,-0.233,0.501,,0.578,22,2,8.835,W*31
$GNRMC,061103.00,A,3737.7564357,N,12704.7385299,E,0.0,,110324,8.8,W,D*18
$PSSN,HRP,061103.00,110324,189.824,,-0.104,0.495,,0.575,22,2,8.835,W*32
$GNRMC,061104.00,A,3737.7564333,N,12704.7385357,E,0.0,,110324,8.8,W,D*1E
$PSSN,HRP,061104.00,110324,189.781,,-0.193,0.501,,0.579,22,2,8.835,W*3B
$GNRMC,061105.00,A,3737.7564331,N,12704.7385328,E,0.0,,110324,8.8,W,D*15
$PSSN,HRP,061105.00,110324,189.846,,-0.046,0.497,,0.577,22,2,8.835,W*37
$GNRMC,061106.00,A,3737.7561375,N,12704.7385418,E,0.0,,110324,8.8,W,D*17
$PSSN,HRP,061106.00,110324,189.725,,-0.173,0.496,,0.578,22,2,8.835,W*37
$GNRMC,061107.00,A,3737.7561373,N,12704.7385310,E,0.0,,110324,8.8,W,D*1F
$PSSN,HRP,061107.00,110324,189.869,,-0.043,0.502,,0.577,22,2,8.835,W*30
$GNRMC,061108.00,A,3737.7561387,N,12704.7385343,E,0.0,,110324,8.8,W,D*1D
$PSSN,HRP,061108.00,110324,190.040,,0.143,0.496,,0.575,22,2,8.835,W*16
$GNRMC,061109.00,A,3737.7561387,N,12704.7385358,E,0.0,,110324,8.8,W,D*16
$PSSN,HRP,061109.00,110324,189.927,,0.042,0.489,,0.573,22,2,8.835,W*1F
$GNRMC,061110.00,A,3737.7561373,N,12704.7385288,E,0.0,,110324,8.8,W,D*19
$PSSN,HRP,061110.00,110324,190.022,,0.237,0.495,,0.575,22,2,8.835,W*18
$GNRMC,061111.00,A,3737.7561380,N,12704.7385341,E,0.0,,110324,8.8,W,D*10
$PSSN,HRP,061111.00,110324,189.931,,-0.009,0.491,,0.574,22,2,8.835,W*3D
$GNRMC,061112.00,A,3737.7561380,N,12704.7385340,E,0.0,,110324,8.8,W,D*12
$PSSN,HRP,061112.00,110324,189.972,,-0.072,0.489,,0.573,22,2,8.835,W*3B
$GNRMC,061113.00,A,3737.7561389,N,12704.7385303,E,0.0,,110324,8.8,W,D*1D
$PSSN,HRP,061113.00,110324,189.903,,-0.019,0.498,,0.577,22,2,8.835,W*35
$GNRMC,061114.00,A,3737.7561383,N,12704.7385291,E,0.0,,110324,8.8,W,D*1A
$PSSN,HRP,061114.00,110324,189.881,,0.025,0.493,,0.575,22,2,8.835,W*12
$GNRMC,061115.00,A,3737.7561379,N,12704.7385331,E,0.0,,110324,8.8,W,D*15
$PSSN,HRP,061115.00,110324,189.855,,-0.008,0.501,,0.578,22,2,8.835,W*3F
$GNRMC,061116.00,A,3737.7561378,N,12704.7385298,E,0.0,,110324,8.8,W,D*15
$PSSN,HRP,061116.00,110324,189.896,,-0.029,0.498,,0.576,22,2,8.835,W*3F
$GNRMC,061117.00,A,3737.7561383,N,12704.7385289,E,0.0,,110324,8.8,W,D*10
$PSSN,HRP,061117.00,110324,189.891,,-0.095,0.497,,0.577,22,2,8.835,W*30
$GNRMC,061118.00,A,3737.7561388,N,12704.7385322,E,0.0,,110324,8.8,W,D*14
$PSSN,HRP,061118.00,110324,189.898,,-0.091,0.501,,0.578,22,2,8.835,W*33
$GNRMC,061119.00,A,3737.7561397,N,12704.7385313,E,0.0,,110324,8.8,W,D*19
$PSSN,HRP,061119.00,110324,190.044,,-0.006,0.499,,0.577,22,2,8.835,W*32
$GNRMC,061120.00,A,3737.7561378,N,12704.7385315,E,0.0,,110324,8.8,W,D*14
$PSSN,HRP,061120.00,110324,190.030,,0.014,0.496,,0.577,22,2,8.835,W*1A
$GNRMC,061121.00,A,3737.7561374,N,12704.7385311,E,0.0,,110324,8.8,W,D*1D
$PSSN,HRP,061121.00,110324,190.181,,0.155,0.490,,0.573,22,2,8.835,W*16
$GNRMC,061122.00,A,3737.7561376,N,12704.7385311,E,0.0,,110324,8.8,W,D*1C
$PSSN,HRP,061122.00,110324,189.831,,-0.168,0.501,,0.579,22,2,8.835,W*3F
$GNRMC,061123.00,A,3737.7561385,N,12704.7385310,E,0.0,,110324,8.8,W,D*10
$PSSN,HRP,061123.00,110324,190.108,,0.038,0.497,,0.576,22,2,8.835,W*1D
$GNRMC,061124.00,A,3737.7561384,N,12704.7385320,E,0.0,,110324,8.8,W,D*15
$PSSN,HRP,061124.00,110324,189.814,,-0.140,0.500,,0.579,22,2,8.835,W*35
$GNRMC,061125.00,A,3737.7561381,N,12704.7385315,E,0.0,,110324,8.8,W,D*17
$PSSN,HRP,061125.00,110324,189.761,,-0.123,0.498,,0.579,22,2,8.835,W*3C
$GNRMC,061126.00,A,3737.7561388,N,12704.7385353,E,0.0,,110324,8.8,W,D*1F
$PSSN,HRP,061126.00,110324,190.019,,0.004,0.489,,0.575,22,2,8.835,W*1A
$GNRMC,061127.00,A,3737.7561387,N,12704.7385387,E,0.0,,110324,8.8,W,D*18
$PSSN,HRP,061127.00,110324,189.965,,-0.036,0.492,,0.575,22,2,8.835,W*37
$GNRMC,061128.00,A,3737.7561389,N,12704.7385354,E,0.0,,110324,8.8,W,D*17
$PSSN,HRP,061128.00,110324,189.987,,0.117,0.498,,0.577,22,2,8.835,W*13
$GNRMC,061129.00,A,3737.7561390,N,12704.7385361,E,0.0,,110324,8.8,W,D*18
$PSSN,HRP,061129.00,110324,189.896,,-0.090,0.497,,0.577,22,2,8.835,W*3F
$GNRMC,061130.00,A,3737.7561379,N,12704.7385354,E,0.0,,110324,8.8,W,D*11
$PSSN,HRP,061130.00,110324,189.811,,-0.021,0.499,,0.577,22,2,8.835,W*3C
$GNRMC,061131.00,A,3737.7561388,N,12704.7385327,E,0.0,,110324,8.8,W,D*1A
$PSSN,HRP,061131.00,110324,189.871,,0.009,0.503,,0.578,22,2,8.835,W*11
$GNRMC,061132.00,A,3737.7561387,N,12704.7385312,E,0.0,,110324,8.8,W,D*10
$PSSN,HRP,061132.00,110324,189.891,,0.058,0.510,,0.580,22,2,8.835,W*1D
$GNRMC,061133.00,A,3737.7561383,N,12704.7385345,E,0.0,,110324,8.8,W,D*17
$PSSN,HRP,061133.00,110324,189.915,,0.048,0.506,,0.579,22,2,8.835,W*11
$GNRMC,061134.00,A,3737.7561376,N,12704.7385321,E,0.0,,110324,8.8,W,D*18
$PSSN,HRP,061134.00,110324,189.858,,0.031,0.502,,0.579,22,2,8.835,W*14
$GNRMC,061135.00,A,3737.7561380,N,12704.7385323,E,0.0,,110324,8.8,W,D*12
$PSSN,HRP,061135.00,110324,189.844,,-0.028,0.505,,0.579,22,2,8.835,W*3A
$GNRMC,061136.00,A,3737.7561377,N,12704.7385300,E,0.0,,110324,8.8,W,D*18
$PSSN,HRP,061136.00,110324,189.721,,-0.153,0.502,,0.578,22,2,8.835,W*3E
$GNRMC,061137.00,A,3737.7561380,N,12704.7385302,E,0.0,,110324,8.8,W,D*13
$PSSN,HRP,061137.00,110324,189.757,,0.062,0.498,,0.576,22,2,8.835,W*1C
$GNRMC,061138.00,A,3737.7561378,N,12704.7385301,E,0.0,,110324,8.8,W,D*18
$PSSN,HRP,061138.00,110324,189.862,,-0.039,0.497,,0.577,22,2,8.835,W*37
$GNRMC,061139.00,A,3737.7561379,N,12704.7385294,E,0.0,,110324,8.8,W,D*15
$PSSN,HRP,061139.00,110324,190.025,,0.146,0.496,,0.576,22,2,8.835,W*11
$GNRMC,061140.00,A,3737.7561370,N,12704.7385288,E,0.0,,110324,8.8,W,D*1F
$PSSN,HRP,061140.00,110324,190.083,,0.188,0.498,,0.577,22,2,8.835,W*1E
$GNRMC,061141.00,A,3737.7561369,N,12704.7385281,E,0.0,,110324,8.8,W,D*1F
$PSSN,HRP,061141.00,110324,189.975,,-0.044,0.494,,0.577,22,2,8.835,W*37
$GNRMC,061142.00,A,3737.7561375,N,12704.7385289,E,0.0,,110324,8.8,W,D*19
$PSSN,HRP,061142.00,110324,189.813,,-0.185,0.500,,0.578,22,2,8.835,W*3A
$GNRMC,061143.00,A,3737.7561389,N,12704.7385276,E,0.0,,110324,8.8,W,D*1B
$PSSN,HRP,061143.00,110324,189.885,,-0.042,0.494,,0.575,22,2,8.835,W*3F
$GNRMC,061144.00,A,3737.7561384,N,12704.7385288,E,0.0,,110324,8.8,W,D*10
$PSSN,HRP,061144.00,110324,189.918,,-0.145,0.497,,0.577,22,2,8.835,W*3A
$GNRMC,061145.00,A,3737.7561369,N,12704.7385278,E,0.0,,110324,8.8,W,D*1D
$PSSN,HRP,061145.00,110324,189.753,,-0.156,0.503,,0.579,22,2,8.835,W*3A
$GNRMC,061146.00,A,3737.7561380,N,12704.7385299,E,0.0,,110324,8.8,W,D*16
$PSSN,HRP,061146.00,110324,190.001,,0.191,0.497,,0.576,22,2,8.835,W*14
$GNRMC,061147.00,A,3737.7561363,N,12704.7385286,E,0.0,,110324,8.8,W,D*14
$PSSN,HRP,061147.00,110324,189.922,,-0.003,0.498,,0.576,22,2,8.835,W*3D
$GNRMC,061148.00,A,3737.7561377,N,12704.7385295,E,0.0,,110324,8.8,W,D*1C
$PSSN,HRP,061148.00,110324,189.897,,-0.023,0.500,,0.578,22,2,8.835,W*31
$GNRMC,061149.00,A,3737.7561364,N,12704.7385283,E,0.0,,110324,8.8,W,D*18
$PSSN,HRP,061149.00,110324,189.871,,0.006,0.497,,0.577,22,2,8.835,W*12
$GNRMC,061150.00,A,3737.7561378,N,12704.7385265,E,0.0,,110324,8.8,W,D*15
$PSSN,HRP,061150.00,110324,189.794,,-0.088,0.496,,0.577,22,2,8.835,W*34
$GNRMC,061151.00,A,3737.7561374,N,12704.7385303,E,0.0,,110324,8.8,W,D*19
$PSSN,HRP,061151.00,110324,189.865,,-0.042,0.501,,0.577,22,2,8.835,W*3D
$GNRMC,061152.00,A,3737.7561376,N,12704.7385311,E,0.0,,110324,8.8,W,D*1B
$PSSN,HRP,061152.00,110324,189.865,,-0.002,0.503,,0.580,22,2,8.835,W*30
$GNRMC,061153.00,A,3737.7561390,N,12704.7385296,E,0.0,,110324,8.8,W,D*1C
$PSSN,HRP,061153.00,110324,189.978,,0.149,0.501,,0.578,22,2,8.835,W*1A
$GNRMC,061154.00,A,3737.7561387,N,12704.7385276,E,0.0,,110324,8.8,W,D*13
$PSSN,HRP,061154.00,110324,189.727,,-0.271,0.499,,0.579,22,2,8.835,W*3D
$GNRMC,061155.00,A,3737.7561373,N,12704.7385240,E,0.0,,110324,8.8,W,D*1C
$PSSN,HRP,061155.00,110324,189.702,,-0.168,0.493,,0.577,22,2,8.835,W*34
$GNRMC,061156.00,A,3737.7561377,N,12704.7385275,E,0.0,,110324,8.8,W,D*1D
$PSSN,HRP,061156.00,110324,189.853,,-0.037,0.497,,0.579,22,2,8.835,W*3D
$GNRMC,061157.00,A,3737.7561375,N,12704.7385268,E,0.0,,110324,8.8,W,D*12
$PSSN,HRP,061157.00,110324,189.881,,-0.040,0.505,,0.580,22,2,8.835,W*3F
$GNRMC,061158.00,A,3737.7561368,N,12704.7385295,E,0.0,,110324,8.8,W,D*13
$PSSN,HRP,061158.00,110324,189.844,,-0.174,0.505,,0.581,22,2,8.835,W*3E
$GNRMC,061159.00,A,3737.7561369,N,12704.7385269,E,0.0,,110324,8.8,W,D*10
$PSSN,HRP,061159.00,110324,189.775,,-0.125,0.503,,0.581,22,2,8.835,W*30
$GNRMC,061200.00,A,3737.7561370,N,12704.7385327,E,0.0,,110324,8.8,W,D*1C
$PSSN,HRP,061200.00,110324,189.834,,-0.135,0.505,,0.579,22,2,8.835,W*35
$GNRMC,061201.00,A,3737.7561373,N,12704.7385285,E,0.0,,110324,8.8,W,D*17
$PSSN,HRP,061201.00,110324,189.994,,-0.149,0.491,,0.575,22,2,8.835,W*34
$GNRMC,061202.00,A,3737.7561365,N,12704.7385264,E,0.0,,110324,8.8,W,D*1C
$PSSN,HRP,061202.00,110324,189.945,,-0.141,0.495,,0.577,22,2,8.835,W*35
$GNRMC,061203.00,A,3737.7561379,N,12704.7385318,E,0.0,,110324,8.8,W,D*1A
$PSSN,HRP,061203.00,110324,189.685,,-0.308,0.497,,0.580,22,2,8.835,W*32
$GNRMC,061204.00,A,3737.7561369,N,12704.7385293,E,0.0,,110324,8.8,W,D*1E
$PSSN,HRP,061204.00,110324,189.871,,-0.005,0.500,,0.579,22,2,8.835,W*37
$GNRMC,061205.00,A,3737.7561372,N,12704.7385310,E,0.0,,110324,8.8,W,D*1F
$PSSN,HRP,061205.00,110324,189.744,,-0.192,0.512,,0.584,22,2,8.835,W*31
$GNRMC,061206.00,A,3737.7561363,N,12704.7385271,E,0.0,,110324,8.8,W,D*1A
$PSSN,HRP,061206.00,110324,189.787,,-0.103,0.502,,0.579,22,2,8.835,W*36
$GNRMC,061207.00,A,3737.7561374,N,12704.7385298,E,0.0,,110324,8.8,W,D*1A
$PSSN,HRP,061207.00,110324,189.902,,-0.092,0.498,,0.578,22,2,8.835,W*3E
$GNRMC,061208.00,A,3737.7561386,N,12704.7385294,E,0.0,,110324,8.8,W,D*14
$PSSN,HRP,061208.00,110324,189.793,,-0.153,0.496,,0.577,22,2,8.835,W*3A
$GNRMC,061209.00,A,3737.7561379,N,12704.7385335,E,0.0,,110324,8.8,W,D*1F
$PSSN,HRP,061209.00,110324,189.931,,0.036,0.501,,0.579,22,2,8.835,W*13
$GNRMC,061210.00,A,3737.7561373,N,12704.7385272,E,0.0,,110324,8.8,W,D*1F
$PSSN,HRP,061210.00,110324,189.907,,0.027,0.501,,0.579,22,2,8.835,W*1E
$GNRMC,061211.00,A,3737.7561364,N,12704.7385311,E,0.0,,110324,8.8,W,D*1C
$PSSN,HRP,061211.00,110324,189.913,,-0.116,0.500,,0.578,22,2,8.835,W*34
$GNRMC,061212.00,A,3737.7561364,N,12704.7385278,E,0.0,,110324,8.8,W,D*11
$PSSN,HRP,061212.00,110324,189.926,,-0.026,0.494,,0.578,22,2,8.835,W*3F
$GNRMC,061213.00,A,3737.7561386,N,12704.7385310,E,0.0,,110324,8.8,W,D*13
$PSSN,HRP,061213.00,110324,189.787,,-0.065,0.495,,0.577,22,2,8.835,W*32
$GNRMC,061214.00,A,3737.7561374,N,12704.7385293,E,0.0,,110324,8.8,W,D*13
$PSSN,HRP,061214.00,110324,189.808,,-0.103,0.496,,0.578,22,2,8.835,W*30
$GNRMC,061215.00,A,3737.7561366,N,12704.7385300,E,0.0,,110324,8.8,W,D*1A
$PSSN,HRP,061215.00,110324,189.926,,0.009,0.500,,0.578,22,2,8.835,W*14
$GNRMC,061216.00,A,3737.7561371,N,12704.7385292,E,0.0,,110324,8.8,W,D*15
$PSSN,HRP,061216.00,110324,189.880,,-0.000,0.498,,0.579,22,2,8.835,W*3F
$GNRMC,061217.00,A,3737.7561367,N,12704.7385285,E,0.0,,110324,8.8,W,D*15
$PSSN,HRP,061217.00,110324,189.944,,0.021,0.503,,0.579,22,2,8.835,W*1A
$GNRMC,061218.00,A,3737.7561372,N,12704.7385295,E,0.0,,110324,8.8,W,D*1F
$PSSN,HRP,061218.00,110324,189.577,,-0.333,0.503,,0.580,22,2,8.835,W*32
$GNRMC,061219.00,A,3737.7561374,N,12704.7385267,E,0.0,,110324,8.8,W,D*15
$PSSN,HRP,061219.00,110324,189.878,,0.021,0.504,,0.581,22,2,8.835,W*1A
$GNRMC,061220.00,A,3737.7561374,N,12704.7385324,E,0.0,,110324,8.8,W,D*19
$PSSN,HRP,061220.00,110324,190.024,,0.091,0.498,,0.578,22,2,8.835,W*10
$GNRMC,061221.00,A,3737.7561367,N,12704.7385303,E,0.0,,110324,8.8,W,D*1F
$PSSN,HRP,061221.00,110324,190.043,,0.105,0.499,,0.579,22,2,8.835,W*1C
$GNRMC,061222.00,A,3737.7561370,N,12704.7385291,E,0.0,,110324,8.8,W,D*10
$PSSN,HRP,061222.00,110324,189.923,,0.070,0.497,,0.578,22,2,8.835,W*14
$GNRMC,061223.00,A,3737.7561385,N,12704.7385323,E,0.0,,110324,8.8,W,D*13
$PSSN,HRP,061223.00,110324,190.036,,0.113,0.496,,0.577,22,2,8.835,W*1A
$GNRMC,061224.00,A,3737.7561384,N,12704.7385273,E,0.0,,110324,8.8,W,D*11
$PSSN,HRP,061224.00,110324,189.955,,0.062,0.511,,0.582,22,2,8.835,W*1A
$GNRMC,061225.00,A,3737.7561385,N,12704.7385342,E,0.0,,110324,8.8,W,D*12
$PSSN,HRP,061225.00,110324,189.971,,0.157,0.494,,0.576,22,2,8.835,W*1D
$GNRMC,061226.00,A,3737.7561388,N,12704.7385330,E,0.0,,110324,8.8,W,D*19
$PSSN,HRP,061226.00,110324,189.925,,-0.005,0.499,,0.578,22,2,8.835,W*37
$GNRMC,061227.00,A,3737.7561385,N,12704.7385318,E,0.0,,110324,8.8,W,D*1F
$PSSN,HRP,061227.00,110324,189.756,,-0.103,0.501,,0.579,22,2,8.835,W*3A
$GNRMC,061228.00,A,3737.7561379,N,12704.7385313,E,0.0,,110324,8.8,W,D*18
$PSSN,HRP,061228.00,110324,189.772,,-0.115,0.494,,0.576,22,2,8.835,W*36
$GNRMC,061229.00,A,3737.7561384,N,12704.7385260,E,0.0,,110324,8.8,W,D*1E
$PSSN,HRP,061229.00,110324,189.757,,-0.058,0.496,,0.577,23,2,8.835,W*3A
$GNRMC,061230.00,A,3737.7561364,N,12704.7385174,E,0.0,,110324,8.8,W,D*1E
$PSSN,HRP,061230.00,110324,190.039,,0.153,0.498,,0.578,22,2,8.835,W*12
$GNRMC,061231.00,A,3737.7561374,N,12704.7385226,E,0.0,,110324,8.8,W,D*1A
$PSSN,HRP,061231.00,110324,189.914,,0.144,0.495,,0.577,23,2,8.835,W*18
$GNRMC,061232.00,A,3737.7561379,N,12704.7385214,E,0.0,,110324,8.8,W,D*15
$PSSN,HRP,061232.00,110324,189.957,,0.133,0.493,,0.562,23,2,8.835,W*1E
$GNRMC,061233.00,A,3737.7561374,N,12704.7385252,E,0.0,,110324,8.8,W,D*1B
$PSSN,HRP,061233.00,110324,189.673,,-0.170,0.529,,0.574,21,2,8.835,W*39
$GNRMC,061234.00,A,3737.7561384,N,12704.7385213,E,0.0,,110324,8.8,W,D*16
$PSSN,HRP,061234.00,110324,189.532,,-0.166,0.526,,0.572,23,2,8.835,W*34
$GNRMC,061235.00,A,3737.7561371,N,12704.7385237,E,0.0,,110324,8.8,W,D*1B
$PSSN,HRP,061235.00,110324,189.564,,-0.142,0.531,,0.575,21,2,8.835,W*33
$GNRMC,061236.00,A,3737.7561368,N,12704.7385170,E,0.0,,110324,8.8,W,D*10
$PSSN,HRP,061236.00,110324,189.439,,-0.306,0.529,,0.575,21,2,8.835,W*32
$GNRMC,061237.00,A,3737.7561361,N,12704.7385187,E,0.0,,110324,8.8,W,D*10
$PSSN,HRP,061237.00,110324,189.487,,-0.308,0.530,,0.575,21,2,8.835,W*30
$GNRMC,061238.00,A,3737.7561371,N,12704.7385223,E,0.0,,110324,8.8,W,D*13
$PSSN,HRP,061238.00,110324,189.524,,-0.250,0.529,,0.575,23,2,8.835,W*31
$GNRMC,061239.00,A,3737.7561379,N,12704.7385213,E,0.0,,110324,8.8,W,D*19
$PSSN,HRP,061239.00,110324,189.378,,-0.232,0.528,,0.573,21,2,8.835,W*3E
$GNRMC,061240.00,A,3737.7561367,N,12704.7385213,E,0.0,,110324,8.8,W,D*18
$PSSN,HRP,061240.00,110324,189.625,,-0.111,0.530,,0.575,21,2,8.835,W*30
$GNRMC,061241.00,A,3737.7561376,N,12704.7385208,E,0.0,,110324,8.8,W,D*13
$PSSN,HRP,061241.00,110324,189.541,,-0.110,0.527,,0.573,21,2,8.835,W*31
$GNRMC,061242.00,A,3737.7561367,N,12704.7385262,E,0.0,,110324,8.8,W,D*1C
$PSSN,HRP,061242.00,110324,189.609,,-0.156,0.528,,0.574,23,2,8.835,W*35
$GNRMC,061243.00,A,3737.7561376,N,12704.7385189,E,0.0,,110324,8.8,W,D*1B
$PSSN,HRP,061243.00,110324,189.964,,0.138,0.498,,0.563,23,2,8.835,W*19
$GNRMC,061244.00,A,3737.7561375,N,12704.7385211,E,0.0,,110324,8.8,W,D*1D
$PSSN,HRP,061244.00,110324,189.875,,0.052,0.499,,0.565,23,2,8.835,W*15
$GNRMC,061245.00,A,3737.7561356,N,12704.7385167,E,0.0,,110324,8.8,W,D*1F
$PSSN,HRP,061245.00,110324,190.011,,0.145,0.501,,0.564,23,2,8.835,W*10
$GNRMC,061246.00,A,3737.7561360,N,12704.7385181,E,0.0,,110324,8.8,W,D*11
$PSSN,HRP,061246.00,110324,189.840,,-0.103,0.505,,0.567,23,2,8.835,W*3F
$GNRMC,061247.00,A,3737.7561363,N,12704.7385172,E,0.0,,110324,8.8,W,D*1F
$PSSN,HRP,061247.00,110324,189.940,,0.133,0.504,,0.567,23,2,8.835,W*10
$GNRMC,061248.00,A,3737.7561363,N,12704.7385136,E,0.0,,110324,8.8,W,D*10
$PSSN,HRP,061248.00,110324,189.780,,0.002,0.505,,0.566,23,2,8.835,W*1E
$GNRMC,061249.00,A,3737.7561356,N,12704.7385203,E,0.0,,110324,8.8,W,D*12
$PSSN,HRP,061249.00,110324,189.799,,-0.081,0.494,,0.562,23,2,8.835,W*3C
$GNRMC,061250.00,A,3737.7561348,N,12704.7385119,E,0.0,,110324,8.8,W,D*1D
$PSSN,HRP,061250.00,110324,189.921,,-0.047,0.494,,0.562,23,2,8.835,W*33
$GNRMC,061251.00,A,3737.7561366,N,12704.7385201,E,0.0,,110324,8.8,W,D*1A
$PSSN,HRP,061251.00,110324,189.792,,-0.026,0.503,,0.565,23,2,8.835,W*3B
$GNRMC,061252.00,A,3737.7561356,N,12704.7385188,E,0.0,,110324,8.8,W,D*18
$PSSN,HRP,061252.00,110324,189.982,,0.079,0.501,,0.565,23,2,8.835,W*12
$GNRMC,061253.00,A,3737.7561355,N,12704.7385174,E,0.0,,110324,8.8,W,D*19
$PSSN,HRP,061253.00,110324,190.024,,0.041,0.496,,0.564,23,2,8.835,W*1B
$GNRMC,061254.00,A,3737.7561353,N,12704.7385135,E,0.0,,110324,8.8,W,D*1D
$PSSN,HRP,061254.00,110324,189.812,,-0.084,0.500,,0.564,23,2,8.835,W*33
$GNRMC,061255.00,A,3737.7561355,N,12704.7385170,E,0.0,,110324,8.8,W,D*1B
$PSSN,HRP,061255.00,110324,189.554,,-0.191,0.530,,0.575,21,2,8.835,W*39
$GNRMC,061256.00,A,3737.7561356,N,12704.7385154,E,0.0,,110324,8.8,W,D*1D
$PSSN,HRP,061256.00,110324,189.581,,-0.079,0.528,,0.572,23,2,8.835,W*39
$GNRMC,061257.00,A,3737.7561364,N,12704.7385185,E,0.0,,110324,8.8,W,D*11
$PSSN,HRP,061257.00,110324,189.889,,-0.065,0.504,,0.565,23,2,8.835,W*38
$GNRMC,061258.00,A,3737.7561372,N,12704.7385166,E,0.0,,110324,8.8,W,D*14
$PSSN,HRP,061258.00,110324,189.799,,-0.177,0.500,,0.564,23,2,8.835,W*3E
$GNRMC,061259.00,A,3737.7561367,N,12704.7385148,E,0.0,,110324,8.8,W,D*1D
$PSSN,HRP,061259.00,110324,189.554,,-0.040,0.511,,0.584,22,2,8.835,W*36
$GNRMC,061300.00,A,3737.7561363,N,12704.7385259,E,0.0,,110324,8.8,W,D*17
$PSSN,HRP,061300.00,110324,189.691,,-0.192,0.509,,0.583,22,2,8.835,W*31
$GNRMC,061301.00,A,3737.7561358,N,12704.7385062,E,0.0,,110324,8.8,W,D*14
$PSSN,HRP,061301.00,110324,189.696,,-0.006,0.504,,0.582,22,2,8.835,W*37
$GNRMC,061302.00,A,3737.7561368,N,12704.7385218,E,0.0,,110324,8.8,W,D*1B
$PSSN,HRP,061302.00,110324,190.010,,-0.014,0.498,,0.577,22,2,8.835,W*39
$GNRMC,061303.00,A,3737.7561363,N,12704.7385122,E,0.0,,110324,8.8,W,D*1B
$PSSN,HRP,061303.00,110324,190.064,,0.138,0.497,,0.578,22,2,8.835,W*19
$GNRMC,061304.00,A,3737.7561371,N,12704.7385169,E,0.0,,110324,8.8,W,D*10
$PSSN,HRP,061304.00,110324,189.847,,-0.141,0.494,,0.578,22,2,8.835,W*3F
$GNRMC,061305.00,A,3737.7561369,N,12704.7385162,E,0.0,,110324,8.8,W,D*13
$PSSN,HRP,061305.00,110324,189.987,,0.215,0.494,,0.576,22,2,8.835,W*12
$GNRMC,061306.00,A,3737.7561376,N,12704.7385237,E,0.0,,110324,8.8,W,D*1D
$PSSN,HRP,061306.00,110324,189.863,,-0.040,0.503,,0.580,22,2,8.835,W*33
$GNRMC,061307.00,A,3737.7561364,N,12704.7385218,E,0.0,,110324,8.8,W,D*12
$PSSN,HRP,061307.00,110324,190.034,,0.133,0.498,,0.578,22,2,8.835,W*1C
$GNRMC,061308.00,A,3737.7561379,N,12704.7385176,E,0.0,,110324,8.8,W,D*1A
$PSSN,HRP,061308.00,110324,189.864,,0.033,0.499,,0.579,22,2,8.835,W*17
$GNRMC,061309.00,A,3737.7561372,N,12704.7385188,E,0.0,,110324,8.8,W,D*11
$PSSN,HRP,061309.00,110324,190.003,,0.158,0.500,,0.580,22,2,8.835,W*1C
$GNRMC,061310.00,A,3737.7561368,N,12704.7385095,E,0.0,,110324,8.8,W,D*1F
$PSSN,HRP,061310.00,110324,189.836,,-0.094,0.502,,0.580,22,2,8.835,W*3C
$GNRMC,061311.00,A,3737.7561363,N,12704.7385183,E,0.0,,110324,8.8,W,D*13
$PSSN,HRP,061311.00,110324,189.757,,-0.169,0.496,,0.578,22,2,8.835,W*3D
$GNRMC,061312.00,A,3737.7561365,N,12704.7385217,E,0.0,,110324,8.8,W,D*18
$PSSN,HRP,061312.00,110324,189.742,,-0.188,0.529,,0.588,20,2,8.835,W*3D
$GNRMC,061313.00,A,3737.7561367,N,12704.7385194,E,0.0,,110324,8.8,W,D*13
$PSSN,HRP,061313.00,110324,189.681,,-0.203,0.530,,0.587,22,2,8.835,W*37
$GNRMC,061314.00,A,3737.7561379,N,12704.7385156,E,0.0,,110324,8.8,W,D*15
$PSSN,HRP,061314.00,110324,189.509,,-0.281,0.515,,0.585,22,2,8.835,W*3C
$GNRMC,061315.00,A,3737.7561364,N,12704.7385178,E,0.0,,110324,8.8,W,D*14
$PSSN,HRP,061315.00,110324,189.428,,-0.331,0.508,,0.582,22,2,8.835,W*3E
$GNRMC,061316.00,A,3737.7561362,N,12704.7385121,E,0.0,,110324,8.8,W,D*1D
$PSSN,HRP,061316.00,110324,189.611,,-0.150,0.502,,0.582,23,2,8.835,W*3B
$GNRMC,061317.00,A,3737.7561367,N,12704.7385169,E,0.0,,110324,8.8,W,D*15
$PSSN,HRP,061317.00,110324,189.776,,-0.308,0.503,,0.581,22,2,8.835,W*36
$GNRMC,061318.00,A,3737.7561368,N,12704.7385188,E,0.0,,110324,8.8,W,D*1A
$PSSN,HRP,061318.00,110324,189.510,,-0.372,0.531,,0.590,20,2,8.835,W*35
$GNRMC,061319.00,A,3737.7561369,N,12704.7385192,E,0.0,,110324,8.8,W,D*11
$PSSN,HRP,061319.00,110324,189.496,,-0.380,0.528,,0.588,20,2,8.835,W*37
$GNRMC,061320.00,A,3737.7561371,N,12704.7385159,E,0.0,,110324,8.8,W,D*15
$PSSN,HRP,061320.00,110324,189.520,,-0.341,0.530,,0.588,20,2,8.835,W*35
$GNRMC,061321.00,A,3737.7561350,N,12704.7385105,E,0.0,,110324,8.8,W,D*1E
$PSSN,HRP,061321.00,110324,189.807,,-0.109,0.528,,0.587,22,2,8.835,W*36
$GNRMC,061322.00,A,3737.7561358,N,12704.7385119,E,0.0,,110324,8.8,W,D*18
$PSSN,HRP,061322.00,110324,189.774,,-0.139,0.489,,0.576,22,2,8.835,W*39
$GNRMC,061323.00,A,3737.7561370,N,12704.7385172,E,0.0,,110324,8.8,W,D*1E
$PSSN,HRP,061323.00,110324,189.836,,-0.149,0.493,,0.578,22,2,8.835,W*33
$GNRMC,061324.00,A,3737.7561360,N,12704.7385142,E,0.0,,110324,8.8,W,D*1B
$PSSN,HRP,061324.00,110324,189.970,,0.071,0.497,,0.579,22,2,8.835,W*15
$GNRMC,061325.00,A,3737.7561373,N,12704.7385175,E,0.0,,110324,8.8,W,D*1C
$PSSN,HRP,061325.00,110324,189.982,,-0.040,0.489,,0.576,22,2,8.835,W*36
$GNRMC,061326.00,A,3737.7561365,N,12704.7385163,E,0.0,,110324,8.8,W,D*1F
$PSSN,HRP,061326.00,110324,189.971,,-0.064,0.491,,0.578,22,2,8.835,W*38
$GNRMC,061327.00,A,3737.7561370,N,12704.7385194,E,0.0,,110324,8.8,W,D*12
$PSSN,HRP,061327.00,110324,189.931,,0.007,0.488,,0.575,22,2,8.835,W*10
$GNRMC,061328.00,A,3737.7561366,N,12704.7385190,E,0.0,,110324,8.8,W,D*1E
$PSSN,HRP,061328.00,110324,189.653,,-0.200,0.529,,0.588,20,2,8.835,W*36
$GNRMC,061329.00,A,3737.7561375,N,12704.7385268,E,0.0,,110324,8.8,W,D*19
$PSSN,HRP,061329.00,110324,189.741,,-0.120,0.528,,0.588,22,2,8.835,W*37
$GNRMC,061330.00,A,3737.7561359,N,12704.7385166,E,0.0,,110324,8.8,W,D*12
$PSSN,HRP,061330.00,110324,189.658,,-0.225,0.527,,0.589,20,2,8.835,W*3C
$GNRMC,061331.00,A,3737.7561358,N,12704.7385143,E,0.0,,110324,8.8,W,D*15
$PSSN,HRP,061331.00,110324,189.751,,-0.044,0.528,,0.588,20,2,8.835,W*3E
$GNRMC,061332.00,A,3737.7561345,N,12704.7385161,E,0.0,,110324,8.8,W,D*1A
$PSSN,HRP,061332.00,110324,189.746,,-0.133,0.527,,0.588,20,2,8.835,W*35
$GNRMC,061333.00,A,3737.7561355,N,12704.7385110,E,0.0,,110324,8.8,W,D*1C
$PSSN,HRP,061333.00,110324,189.639,,-0.159,0.528,,0.588,22,2,8.835,W*3C
$GNRMC,061334.00,A,3737.7561355,N,12704.7385152,E,0.0,,110324,8.8,W,D*1D
$PSSN,HRP,061334.00,110324,189.633,,-0.203,0.530,,0.590,20,2,8.835,W*3F
$GNRMC,061335.00,A,3737.7561354,N,12704.7385101,E,0.0,,110324,8.8,W,D*1B
$PSSN,HRP,061335.00,110324,189.693,,-0.193,0.530,,0.589,20,2,8.835,W*36
$GNRMC,061336.00,A,3737.7561352,N,12704.7385118,E,0.0,,110324,8.8,W,D*16
$PSSN,HRP,061336.00,110324,189.552,,-0.357,0.527,,0.589,20,2,8.835,W*37
$GNRMC,061337.00,A,3737.7561351,N,12704.7385095,E,0.0,,110324,8.8,W,D*10
$PSSN,HRP,061337.00,110324,189.480,,-0.310,0.529,,0.591,22,2,8.835,W*3E
$GNRMC,061338.00,A,3737.7561356,N,12704.7385149,E,0.0,,110324,8.8,W,D*18
$PSSN,HRP,061338.00,110324,189.727,,-0.138,0.528,,0.588,20,2,8.835,W*3C
$GNRMC,061339.00,A,3737.7561358,N,12704.7385147,E,0.0,,110324,8.8,W,D*19
$PSSN,HRP,061339.00,110324,189.741,,-0.031,0.531,,0.590,20,2,8.835,W*34
$GNRMC,061340.00,A,3737.7561361,N,12704.7385177,E,0.0,,110324,8.8,W,D*1E
$PSSN,HRP,061340.00,110324,189.699,,-0.109,0.527,,0.589,20,2,8.835,W*3B
$GNRMC,061341.00,A,3737.7561364,N,12704.7385135,E,0.0,,110324,8.8,W,D*1C
$PSSN,HRP,061341.00,110324,189.640,,-0.267,0.526,,0.588,20,2,8.835,W*35
$GNRMC,061342.00,A,3737.7561370,N,12704.7385180,E,0.0,,110324,8.8,W,D*14
$PSSN,HRP,061342.00,110324,189.626,,-0.206,0.528,,0.589,20,2,8.835,W*3E
$GNRMC,061343.00,A,3737.7561379,N,12704.7385182,E,0.0,,110324,8.8,W,D*1E
$PSSN,HRP,061343.00,110324,189.668,,-0.189,0.530,,0.590,20,2,8.835,W*30
$GNRMC,061344.00,A,3737.7561377,N,12704.7385109,E,0.0,,110324,8.8,W,D*14
$PSSN,HRP,061344.00,110324,189.754,,-0.049,0.527,,0.590,20,2,8.835,W*32
$GNRMC,061345.00,A,3737.7561373,N,12704.7385151,E,0.0,,110324,8.8,W,D*1C
$PSSN,HRP,061345.00,110324,189.572,,-0.277,0.525,,0.589,22,2,8.835,W*32
$GNRMC,061346.00,A,3737.7561370,N,12704.7385127,E,0.0,,110324,8.8,W,D*1D
$PSSN,HRP,061346.00,110324,189.781,,-0.080,0.526,,0.589,20,2,8.835,W*34
$GNRMC,061347.00,A,3737.7561373,N,12704.7385213,E,0.0,,110324,8.8,W,D*1B
$PSSN,HRP,061347.00,110324,189.509,,-0.281,0.526,,0.590,20,2,8.835,W*3C
$GNRMC,061348.00,A,3737.7561368,N,12704.7385191,E,0.0,,110324,8.8,W,D*17
$PSSN,HRP,061348.00,110324,189.567,,-0.273,0.528,,0.592,20,2,8.835,W*3A
$GNRMC,061349.00,A,3737.7561386,N,12704.7385163,E,0.0,,110324,8.8,W,D*1B
$PSSN,HRP,061349.00,110324,189.496,,-0.220,0.528,,0.589,22,2,8.835,W*3A
$GNRMC,061350.00,A,3737.7561357,N,12704.7385168,E,0.0,,110324,8.8,W,D*14
$PSSN,HRP,061350.00,110324,189.693,,-0.064,0.523,,0.589,20,2,8.835,W*3E
$GNRMC,061351.00,A,3737.7561364,N,12704.7385156,E,0.0,,110324,8.8,W,D*18
$PSSN,HRP,061351.00,110324,189.678,,-0.085,0.528,,0.590,20,2,8.835,W*36
$GNRMC,061352.00,A,3737.7561371,N,12704.7385134,E,0.0,,110324,8.8,W,D*1B
$PSSN,HRP,061352.00,110324,189.769,,-0.126,0.528,,0.592,20,2,8.835,W*3E
$GNRMC,061353.00,A,3737.7561364,N,12704.7385171,E,0.0,,110324,8.8,W,D*1F
$PSSN,HRP,061353.00,110324,189.628,,-0.190,0.527,,0.592,20,2,8.835,W*39
$GNRMC,061354.00,A,3737.7561385,N,12704.7385174,E,0.0,,110324,8.8,W,D*12
$PSSN,HRP,061354.00,110324,189.608,,-0.226,0.526,,0.589,22,2,8.835,W*3B
$GNRMC,061355.00,A,3737.7561373,N,12704.7385210,E,0.0,,110324,8.8,W,D*1B
$PSSN,HRP,061355.00,110324,189.672,,-0.084,0.528,,0.591,20,2,8.835,W*38
$GNRMC,061356.00,A,3737.7561366,N,12704.7385148,E,0.0,,110324,8.8,W,D*12
$PSSN,HRP,061356.00,110324,189.619,,-0.135,0.528,,0.590,20,2,8.835,W*3C
$GNRMC,061357.00,A,3737.7561372,N,12704.7385181,E,0.0,,110324,8.8,W,D*13
$PSSN,HRP,061357.00,110324,189.621,,-0.145,0.527,,0.591,20,2,8.835,W*3F
$GNRMC,061358.00,A,3737.7561382,N,12704.7385211,E,0.0,,110324,8.8,W,D*19
$PSSN,HRP,061358.00,110324,189.730,,-0.077,0.528,,0.590,22,2,8.835,W*3D
$GNRMC,061359.00,A,3737.7561378,N,12704.7385187,E,0.0,,110324,8.8,W,D*11
$PSSN,HRP,061359.00,110324,189.474,,-0.392,0.532,,0.595,20,2,8.835,W*3B
$GNRMC,061400.00,A,3737.7561382,N,12704.7385196,E,0.0,,110324,8.8,W,D*1F
$PSSN,HRP,061400.00,110324,189.685,,-0.167,0.530,,0.591,20,2,8.835,W*32
$GNRMC,061401.00,A,3737.7561385,N,12704.7385202,E,0.0,,110324,8.8,W,D*17
$PSSN,HRP,061401.00,110324,189.613,,-0.232,0.527,,0.591,20,2,8.835,W*39
$GNRMC,061402.00,A,3737.7561375,N,12704.7385174,E,0.0,,110324,8.8,W,D*19
$PSSN,HRP,061402.00,110324,189.492,,-0.319,0.528,,0.591,20,2,8.835,W*36
$GNRMC,061403.00,A,3737.7561396,N,12704.7385174,E,0.0,,110324,8.8,W,D*15
$PSSN,HRP,061403.00,110324,189.669,,-0.171,0.528,,0.591,20,2,8.835,W*3D
$GNRMC,061404.00,A,3737.7561385,N,12704.7385195,E,0.0,,110324,8.8,W,D*1F
$PSSN,HRP,061404.00,110324,189.545,,-0.239,0.527,,0.589,20,2,8.835,W*3E
$GNRMC,061405.00,A,3737.7561380,N,12704.7385187,E,0.0,,110324,8.8,W,D*18
$PSSN,HRP,061405.00,110324,189.575,,-0.143,0.530,,0.591,20,2,8.835,W*3D
$GNRMC,061406.00,A,3737.7561378,N,12704.7385186,E,0.0,,110324,8.8,W,D*1D
$PSSN,HRP,061406.00,110324,189.722,,-0.082,0.530,,0.592,20,2,8.835,W*31
$GNRMC,061407.00,A,3737.7561382,N,12704.7385209,E,0.0,,110324,8.8,W,D*1D
$PSSN,HRP,061407.00,110324,189.661,,-0.284,0.532,,0.593,20,2,8.835,W*31
$GNRMC,061408.00,A,3737.7561391,N,12704.7385167,E,0.0,,110324,8.8,W,D*1B
$PSSN,HRP,061408.00,110324,189.609,,-0.220,0.527,,0.590,20,2,8.835,W*39
$GNRMC,061409.00,A,3737.7561393,N,12704.7385244,E,0.0,,110324,8.8,W,D*1A
$PSSN,HRP,061409.00,110324,189.860,,0.009,0.528,,0.591,20,2,8.835,W*13
$GNRMC,061410.00,A,3737.7561375,N,12704.7385250,E,0.0,,110324,8.8,W,D*1F
$PSSN,HRP,061410.00,110324,189.788,,0.018,0.526,,0.590,20,2,8.835,W*1D
$GNRMC,061411.00,A,3737.7561372,N,12704.7385188,E,0.0,,110324,8.8,W,D*1F
$PSSN,HRP,061411.00,110324,189.640,,-0.336,0.528,,0.592,20,2,8.835,W*37
$GNRMC,061412.00,A,3737.7561393,N,12704.7385166,E,0.0,,110324,8.8,W,D*13
$PSSN,HRP,061412.00,110324,189.532,,-0.316,0.531,,0.594,20,2,8.835,W*3E
$GNRMC,061413.00,A,3737.7561384,N,12704.7385194,E,0.0,,110324,8.8,W,D*19
$PSSN,HRP,061413.00,110324,189.561,,-0.371,0.529,,0.594,20,2,8.835,W*31
$GNRMC,061414.00,A,3737.7561381,N,12704.7385169,E,0.0,,110324,8.8,W,D*19
$PSSN,HRP,061414.00,110324,189.598,,-0.282,0.528,,0.593,22,2,8.835,W*39
$GNRMC,061415.00,A,3737.7561388,N,12704.7385162,E,0.0,,110324,8.8,W,D*1A
$PSSN,HRP,061415.00,110324,189.582,,-0.313,0.526,,0.592,20,2,8.835,W*37
$GNRMC,061416.00,A,3737.7561380,N,12704.7385144,E,0.0,,110324,8.8,W,D*15
$PSSN,HRP,061416.00,110324,189.653,,-0.256,0.529,,0.593,20,2,8.835,W*35
$GNRMC,061417.00,A,3737.7561388,N,12704.7385171,E,0.0,,110324,8.8,W,D*1A
$PSSN,HRP,061417.00,110324,189.530,,-0.278,0.527,,0.593,20,2,8.835,W*30
$GNRMC,061418.00,A,3737.7561385,N,12704.7385142,E,0.0,,110324,8.8,W,D*18
$PSSN,HRP,061418.00,110324,189.745,,-0.239,0.528,,0.593,20,2,8.835,W*35
$GNRMC,061419.00,A,3737.7561399,N,12704.7385167,E,0.0,,110324,8.8,W,D*13
$PSSN,HRP,061419.00,110324,189.655,,-0.198,0.528,,0.592,20,2,8.835,W*3D
$GNRMC,061420.00,A,3737.7561392,N,12704.7385167,E,0.0,,110324,8.8,W,D*12
$PSSN,HRP,061420.00,110324,189.461,,-0.422,0.528,,0.594,20,2,8.835,W*30
$GNRMC,061421.00,A,3737.7561408,N,12704.7385236,E,0.0,,110324,8.8,W,D*10
$PSSN,HRP,061421.00,110324,189.674,,-0.195,0.524,,0.591,20,2,8.835,W*37
$GNRMC,061422.00,A,3737.7561387,N,12704.7385261,E,0.0,,110324,8.8,W,D*11
$PSSN,HRP,061422.00,110324,189.401,,-0.425,0.527,,0.591,20,2,8.835,W*39
$GNRMC,061423.00,A,3737.7561396,N,12704.7385241,E,0.0,,110324,8.8,W,D*12
$PSSN,HRP,061423.00,110324,189.501,,-0.491,0.529,,0.595,20,2,8.835,W*3C
$GNRMC,061424.00,A,3737.7561390,N,12704.7385270,E,0.0,,110324,8.8,W,D*11
$PSSN,HRP,061424.00,110324,189.351,,-0.466,0.526,,0.593,20,2,8.835,W*39
$GNRMC,061425.00,A,3737.7561407,N,12704.7385299,E,0.0,,110324,8.8,W,D*1E
$PSSN,HRP,061425.00,110324,189.580,,-0.405,0.526,,0.592,20,2,8.835,W*36
$GNRMC,061426.00,A,3737.7561395,N,12704.7385252,E,0.0,,110324,8.8,W,D*16
$PSSN,HRP,061426.00,110324,189.402,,-0.379,0.526,,0.592,20,2,8.835,W*32
$GNRMC,061427.00,A,3737.7561373,N,12704.7385335,E,0.0,,110324,8.8,W,D*1F
$PSSN,HRP,061427.00,110324,189.458,,-0.389,0.525,,0.591,22,2,8.835,W*31
$GNRMC,061428.00,A,3737.7561379,N,12704.7385332,E,0.0,,110324,8.8,W,D*1D
$PSSN,HRP,061428.00,110324,189.623,,-0.370,0.528,,0.593,20,2,8.835,W*3B
$GNRMC,061429.00,A,3737.7561393,N,12704.7385395,E,0.0,,110324,8.8,W,D*15
$PSSN,HRP,061429.00,110324,189.529,,-0.427,0.525,,0.591,20,2,8.835,W*39
$GNRMC,061430.00,A,3737.7561394,N,12704.7385351,E,0.0,,110324,8.8,W,D*12
$PSSN,HRP,061430.00,110324,189.401,,-0.482,0.528,,0.593,20,2,8.835,W*3A
$GNRMC,061431.00,A,3737.7561388,N,12704.7385288,E,0.0,,110324,8.8,W,D*1B
$PSSN,HRP,061431.00,110324,189.459,,-0.227,0.531,,0.594,20,2,8.835,W*30
$GNRMC,061432.00,A,3737.7561380,N,12704.7385350,E,0.0,,110324,8.8,W,D*14
$PSSN,HRP,061432.00,110324,189.469,,-0.219,0.539,,0.602,20,2,8.835,W*39
$GNRMC,061433.00,A,3737.7561405,N,12704.7385222,E,0.0,,110324,8.8,W,D*1B
$PSSN,HRP,061433.00,110324,189.703,,-0.008,0.532,,0.603,17,2,8.835,W*3B
$GNRMC,061434.00,A,3737.7561404,N,12704.7385380,E,0.0,,110324,8.8,W,D*14
$PSSN,HRP,061434.00,110324,189.463,,0.035,0.547,,0.590,17,2,8.835,W*11
$GNRMC,061435.00,A,3737.7561398,N,12704.7385315,E,0.0,,110324,8.8,W,D*1B
$PSSN,HRP,061435.00,110324,189.389,,-0.087,0.549,,0.594,20,2,8.835,W*39
$GNRMC,061436.00,A,3737.7561385,N,12704.7385278,E,0.0,,110324,8.8,W,D*1E
$PSSN,HRP,061436.00,110324,189.495,,-0.352,0.525,,0.591,20,2,8.835,W*34
$GNRMC,061437.00,A,3737.7561394,N,12704.7385284,E,0.0,,110324,8.8,W,D*1C
$PSSN,HRP,061437.00,110324,189.470,,-0.331,0.530,,0.593,20,2,8.835,W*3D
$GNRMC,061438.00,A,3737.7561394,N,12704.7385263,E,0.0,,110324,8.8,W,D*1A
$PSSN,HRP,061438.00,110324,189.571,,-0.330,0.532,,0.594,20,2,8.835,W*36
$GNRMC,061439.00,A,3737.7561389,N,12704.7385249,E,0.0,,110324,8.8,W,D*1F
$PSSN,HRP,061439.00,110324,189.387,,-0.453,0.530,,0.594,20,2,8.835,W*38
$GNRMC,061440.00,A,3737.7561393,N,12704.7385355,E,0.0,,110324,8.8,W,D*16
$PSSN,HRP,061440.00,110324,189.534,,-0.311,0.526,,0.590,20,2,8.835,W*3A
$GNRMC,061441.00,A,3737.7561380,N,12704.7385325,E,0.0,,110324,8.8,W,D*12
$PSSN,HRP,061441.00,110324,189.630,,-0.255,0.525,,0.591,20,2,8.835,W*3F
$GNRMC,061442.00,A,3737.7561375,N,12704.7385170,E,0.0,,110324,8.8,W,D*19
$PSSN,HRP,061442.00,110324,189.541,,-0.296,0.527,,0.591,20,2,8.835,W*34
$GNRMC,061443.00,A,3737.7561390,N,12704.7385251,E,0.0,,110324,8.8,W,D*13
$PSSN,HRP,061443.00,110324,189.531,,-0.350,0.531,,0.592,20,2,8.835,W*3D
$GNRMC,061444.00,A,3737.7561388,N,12704.7385214,E,0.0,,110324,8.8,W,D*1C
$PSSN,HRP,061444.00,110324,189.275,,-0.558,0.528,,0.591,20,2,8.835,W*38
$GNRMC,061445.00,A,3737.7561385,N,12704.7385208,E,0.0,,110324,8.8,W,D*1D
$PSSN,HRP,061445.00,110324,189.621,,-0.312,0.527,,0.591,20,2,8.835,W*3B
$GNRMC,061446.00,A,3737.7561374,N,12704.7385087,E,0.0,,110324,8.8,W,D*15
$PSSN,HRP,061446.00,110324,189.470,,-0.422,0.529,,0.594,20,2,8.835,W*31
$GNRMC,061447.00,A,3737.7561379,N,12704.7385257,E,0.0,,110324,8.8,W,D*16
$PSSN,HRP,061447.00,110324,189.542,,-0.457,0.528,,0.593,20,2,8.835,W*34
$GNRMC,061448.00,A,3737.7561389,N,12704.7385173,E,0.0,,110324,8.8,W,D*13
$PSSN,HRP,061448.00,110324,189.433,,-0.297,0.527,,0.593,20,2,8.835,W*39
$GNRMC,061449.00,A,3737.7561375,N,12704.7385207,E,0.0,,110324,8.8,W,D*11
$PSSN,HRP,061449.00,110324,189.522,,-0.322,0.523,,0.589,20,2,8.835,W*39
$GNRMC,061450.00,A,3737.7561379,N,12704.7385152,E,0.0,,110324,8.8,W,D*16
$PSSN,HRP,061450.00,110324,189.666,,-0.190,0.527,,0.591,22,2,8.835,W*36
$GNRMC,061451.00,A,3737.7561374,N,12704.7385214,E,0.0,,110324,8.8,W,D*1B
$PSSN,HRP,061451.00,110324,189.439,,-0.277,0.526,,0.590,20,2,8.835,W*37
$GNRMC,061452.00,A,3737.7561387,N,12704.7385216,E,0.0,,110324,8.8,W,D*16
$PSSN,HRP,061452.00,110324,189.432,,-0.400,0.528,,0.592,20,2,8.835,W*35
$GNRMC,061453.00,A,3737.7561379,N,12704.7385154,E,0.0,,110324,8.8,W,D*13
$PSSN,HRP,061453.00,110324,189.497,,-0.324,0.529,,0.594,20,2,8.835,W*3D
$GNRMC,061454.00,A,3737.7561375,N,12704.7385162,E,0.0,,110324,8.8,W,D*1D
$PSSN,HRP,061454.00,110324,189.398,,-0.375,0.529,,0.593,22,2,8.835,W*33
$GNRMC,061455.00,A,3737.7561367,N,12704.7385178,E,0.0,,110324,8.8,W,D*14
$PSSN,HRP,061455.00,110324,189.493,,-0.417,0.502,,0.585,22,2,8.835,W*33
$GNRMC,061456.00,A,3737.7561372,N,12704.7385165,E,0.0,,110324,8.8,W,D*1F
$PSSN,HRP,061456.00,110324,189.424,,-0.338,0.493,,0.584,22,2,8.835,W*3E
$GNRMC,061457.00,A,3737.7561365,N,12704.7385184,E,0.0,,110324,8.8,W,D*17
$PSSN,HRP,061457.00,110324,189.572,,-0.287,0.526,,0.592,20,2,8.835,W*32
$GNRMC,061458.00,A,3737.7561368,N,12704.7385117,E,0.0,,110324,8.8,W,D*1F
$PSSN,HRP,061458.00,110324,189.445,,-0.341,0.527,,0.592,20,2,8.835,W*32
$GNRMC,061459.00,A,3737.7561365,N,12704.7385100,E,0.0,,110324,8.8,W,D*15
$PSSN,HRP,061459.00,110324,189.413,,-0.381,0.527,,0.593,20,2,8.835,W*3D
$GNRMC,061500.00,A,3737.7561355,N,12704.7385151,E,0.0,,110324,8.8,W,D*1F
$PSSN,HRP,061500.00,110324,189.552,,-0.369,0.525,,0.591,22,2,8.835,W*30
$GNRMC,061501.00,A,3737.7561354,N,12704.7385191,E,0.0,,110324,8.8,W,D*13
$PSSN,HRP,061501.00,110324,189.191,,-0.586,0.528,,0.594,20,2,8.835,W*37
$GNRMC,061502.00,A,3737.7561349,N,12704.7385157,E,0.0,,110324,8.8,W,D*16
$PSSN,HRP,061502.00,110324,189.288,,-0.495,0.527,,0.592,20,2,8.835,W*35
$GNRMC,061503.00,A,3737.7561363,N,12704.7385109,E,0.0,,110324,8.8,W,D*14
$PSSN,HRP,061503.00,110324,189.362,,-0.440,0.525,,0.593,20,2,8.835,W*3A
$GNRMC,061504.00,A,3737.7561378,N,12704.7385196,E,0.0,,110324,8.8,W,D*1F
$PSSN,HRP,061504.00,110324,189.498,,-0.413,0.526,,0.592,22,2,8.835,W*39
$GNRMC,061505.00,A,3737.7561355,N,12704.7385097,E,0.0,,110324,8.8,W,D*11
$PSSN,HRP,061505.00,110324,189.413,,-0.420,0.528,,0.593,20,2,8.835,W*36
$GNRMC,061506.00,A,3737.7561363,N,12704.7385159,E,0.0,,110324,8.8,W,D*14
$PSSN,HRP,061506.00,110324,189.546,,-0.369,0.527,,0.593,20,2,8.835,W*31
$GNRMC,061507.00,A,3737.7561363,N,12704.7385157,E,0.0,,110324,8.8,W,D*1B
$PSSN,HRP,061507.00,110324,189.474,,-0.422,0.528,,0.592,20,2,8.835,W*36
$GNRMC,061508.00,A,3737.7561370,N,12704.7385157,E,0.0,,110324,8.8,W,D*16
$PSSN,HRP,061508.00,110324,189.439,,-0.409,0.527,,0.591,22,2,8.835,W*37
$GNRMC,061509.00,A,3737.7561373,N,12704.7385151,E,0.0,,110324,8.8,W,D*12
$PSSN,HRP,061509.00,110324,189.589,,-0.290,0.527,,0.592,20,2,8.835,W*3B
$GNRMC,061510.00,A,3737.7561369,N,12704.7385188,E,0.0,,110324,8.8,W,D*15
$PSSN,HRP,061510.00,110324,189.429,,-0.454,0.522,,0.590,20,2,8.835,W*31
$GNRMC,061511.00,A,3737.7561367,N,12704.7385176,E,0.0,,110324,8.8,W,D*1B
$PSSN,HRP,061511.00,110324,189.610,,-0.309,0.527,,0.592,20,2,8.835,W*30
$GNRMC,061512.00,A,3737.7561369,N,12704.7385107,E,0.0,,110324,8.8,W,D*10
$PSSN,HRP,061512.00,110324,189.525,,-0.360,0.526,,0.592,22,2,8.835,W*3A
$GNRMC,061513.00,A,3737.7561357,N,12704.7385095,E,0.0,,110324,8.8,W,D*16
$PSSN,HRP,061513.00,110324,189.492,,-0.360,0.529,,0.595,20,2,8.835,W*3C
$GNRMC,061514.00,A,3737.7561361,N,12704.7385078,E,0.0,,110324,8.8,W,D*17
$PSSN,HRP,061514.00,110324,189.689,,-0.299,0.524,,0.591,20,2,8.835,W*3D
$GNRMC,061515.00,A,3737.7561367,N,12704.7385108,E,0.0,,110324,8.8,W,D*16
$PSSN,HRP,061515.00,110324,189.415,,-0.596,0.525,,0.591,20,2,8.835,W*32
$GNRMC,061516.00,A,3737.7561356,N,12704.7385086,E,0.0,,110324,8.8,W,D*10
$PSSN,HRP,061516.00,110324,189.431,,-0.472,0.529,,0.593,22,2,8.835,W*30
$GNRMC,061517.00,A,3737.7561354,N,12704.7385091,E,0.0,,110324,8.8,W,D*15
$PSSN,HRP,061517.00,110324,189.623,,-0.313,0.524,,0.590,20,2,8.835,W*3C
$GNRMC,061518.00,A,3737.7561369,N,12704.7385142,E,0.0,,110324,8.8,W,D*1B
$PSSN,HRP,061518.00,110324,189.520,,-0.308,0.527,,0.591,20,2,8.835,W*3B
$GNRMC,061519.00,A,3737.7561364,N,12704.7385094,E,0.0,,110324,8.8,W,D*1D
$PSSN,HRP,061519.00,110324,189.463,,-0.352,0.529,,0.593,20,2,8.835,W*3F
$GNRMC,061520.00,A,3737.7561360,N,12704.7385151,E,0.0,,110324,8.8,W,D*1B
$PSSN,HRP,061520.00,110324,189.556,,-0.359,0.525,,0.591,22,2,8.835,W*35
$GNRMC,061521.00,A,3737.7561359,N,12704.7385088,E,0.0,,110324,8.8,W,D*15
$PSSN,HRP,061521.00,110324,189.544,,-0.306,0.526,,0.591,20,2,8.835,W*3C
$GNRMC,061522.00,A,3737.7561361,N,12704.7385045,E,0.0,,110324,8.8,W,D*1C
$PSSN,HRP,061522.00,110324,189.333,,-0.539,0.528,,0.592,20,2,8.835,W*3E
$GNRMC,061523.00,A,3737.7561345,N,12704.7385019,E,0.0,,110324,8.8,W,D*12
$PSSN,HRP,061523.00,110324,189.550,,-0.408,0.528,,0.593,20,2,8.835,W*3E
$GNRMC,061524.00,A,3737.7561368,N,12704.7385058,E,0.0,,110324,8.8,W,D*1F
$PSSN,HRP,061524.00,110324,189.234,,-0.670,0.525,,0.591,23,2,8.835,W*3D
$GNRMC,061525.00,A,3737.7561365,N,12704.7385046,E,0.0,,110324,8.8,W,D*1C
$PSSN,HRP,061525.00,110324,189.334,,-0.540,0.527,,0.594,20,2,8.835,W*39
$GNRMC,061526.00,A,3737.7561359,N,12704.7385115,E,0.0,,110324,8.8,W,D*17
$PSSN,HRP,061526.00,110324,189.413,,-0.403,0.528,,0.593,20,2,8.835,W*36
$GNRMC,061527.00,A,3737.7561365,N,12704.7385112,E,0.0,,110324,8.8,W,D*1E
$PSSN,HRP,061527.00,110324,189.239,,-0.686,0.527,,0.591,20,2,8.835,W*3B
$GNRMC,061528.00,A,3737.7561386,N,12704.7385155,E,0.0,,110324,8.8,W,D*1F
$PSSN,HRP,061528.00,110324,189.449,,-0.387,0.527,,0.593,22,2,8.835,W*31
$GNRMC,061529.00,A,3737.7561380,N,12704.7385169,E,0.0,,110324,8.8,W,D*17
$PSSN,HRP,061529.00,110324,189.583,,-0.284,0.504,,0.586,22,2,8.835,W*30
$GNRMC,061530.00,A,3737.7561371,N,12704.7385135,E,0.0,,110324,8.8,W,D*18
$PSSN,HRP,061530.00,110324,189.294,,-0.504,0.495,,0.585,22,2,8.835,W*3C
$GNRMC,061531.00,A,3737.7561360,N,12704.7385052,E,0.0,,110324,8.8,W,D*19
