$GPRMC,123519,A,3738.0245,N,12704.6777,E,022.4,207.5,230394,,*6A
$PSSN,123519,240322,0,207.5,0,3.2,*42
$GPRMC,123519,A,3738.0231,N,12704.6770,E,022.4,207.5,230394,,*6A
$PSSN,123519,240322,0,207.5,0,3.2,*42
$GPRMC,123519,A,3738.0217,N,12704.6763,E,022.4,207.5,230394,,*6A
$PSSN,123519,240322,0,207.5,0,3.2,*42
$GPRMC,123519,A,3738.0203,N,12704.6755,E,022.4,207.5,230394,,*6A
$PSSN,123519,240322,0,207.5,0,3.2,*42
$GPRMC,123519,A,3738.0189,N,12704.6748,E,022.4,207.5,230394,,*6A
$PSSN,123519,240322,0,207.5,0,3.2,*42
$GPRMC,123519,A,3738.0175,N,12704.6741,E,022.4,207.5,230394,,*6A
$PSSN,123519,240322,0,207.5,0,3.2,*42
$GPRMC,123519,A,3738.0161,N,12704.6733,E,022.4,207.5,230394,,*6A
$PSSN,123519,240322,0,207.5,0,3.2,*42
$GPRMC,123519,A,3738.0147,N,12704.6726,E,022.4,207.5,230394,,*6A
$PSSN,123519,240322,0,207.5,0,3.2,*42
$GPRMC,123519,A,3738.0133,N,12704.6719,E,022.4,207.5,230394,,*6A
$PSSN,123519,240322,0,207.5,0,3.2,*42
$GPRMC,123519,A,3738.0119,N,12704.6711,E,022.4,207.5,230394,,*6A
$PSSN,123519,240322,0,207.5,0,3.2,*42
$GPRMC,123519,A,3738.0104,N,12704.6704,E,022.4,207.5,230394,,*6A
$PSSN,123519,240322,0,207.5,0,3.2,*42
$GPRMC,123519,A,3738.0090,N,12704.6697,E,022.4,207.5,230394,,*6A
$PSSN,123519,240322,0,207.5,0,3.2,*42
$GPRMC,123519,A,3738.0076,N,12704.6689,E,022.4,207.5,230394,,*6A
$PSSN,123519,240322,0,207.5,0,3.2,*42
$GPRMC,123519,A,3738.0062,N,12704.6682,E,022.4,207.5,230394,,*6A
$PSSN,123519,240322,0,207.5,0,3.2,*42
$GPRMC,123519,A,3738.0048,N,12704.6675,E,022.4,207.5,230394,,*6A
$PSSN,123519,240322,0,207.5,0,3.2,*42
$GPRMC,123519,A,3738.0034,N,12704.6667,E,022.4,207.5,230394,,*6A
$PSSN,123519,240322,0,207.5,0,3.2,*42
$GPRMC,123519,A,3738.0020,N,12704.6660,E,022.4,207.5,230394,,*6A
$PSSN,123519,240322,0,207.5,0,3.2,*42
$GPRMC,123519,A,3738.0006,N,12704.6653,E,022.4,207.5,230394,,*6A
$PSSN,123519,240322,0,207.5,0,3.2,*42
$GPRMC,123519,A,3737.9992,N,12704.6645,E,022.4,207.5,230394,,*6A
$PSSN,123519,240322,0,207.5,0,3.2,*42
$GPRMC,123519,A,3737.9978,N,12704.6638,E,022.4,207.5,230394,,*6A
$PSSN,123519,240322,0,207.5,0,3.2,*42
$GPRMC,123519,A,3737.9964,N,12704.6631,E,022.4,207.5,230394,,*6A
$PSSN,123519,240322,0,207.5,0,3.2,*42
$GPRMC,123519,A,3737.9950,N,12704.6623,E,022.4,207.5,230394,,*6A
$PSSN,123519,240322,0,207.5,0,3.2,*42
$GPRMC,123519,A,3737.9936,N,12704.6616,E,022.4,207.5,230394,,*6A
$PSSN,123519,240322,0,207.5,0,3.2,*42
$GPRMC,123519,A,3737.9921,N,12704.6609,E,022.4,207.5,230394,,*6A
$PSSN,123519,240322,0,207.5,0,3.2,*42
$GPRMC,123519,A,3737.9907,N,12704.6601,E,022.4,207.5,230394,,*6A
$PSSN,123519,240322,0,207.5,0,3.2,*42
$GPRMC,123519,A,3737.9907,N,12704.6601,E,022.4,105.2,230394,,*6A
$PSSN,123519,240322,0,105.2,0,3.2,*42
$GPRMC,123519,A,3737.9905,N,12704.6609,E,022.4,105.2,230394,,*6A
$PSSN,123519,240322,0,105.2,0,3.2,*42
$GPRMC,123519,A,3737.9903,N,12704.6616,E,022.4,105.2,230394,,*6A
$PSSN,123519,240322,0,105.2,0,3.2,*42
$GPRMC,123519,A,3737.9901,N,12704.6624,E,022.4,105.2,230394,,*6A
$PSSN,123519,240322,0,105.2,0,3.2,*42
$GPRMC,123519,A,3737.9899,N,12704.6631,E,022.4,105.2,230394,,*6A
$PSSN,123519,240322,0,105.2,0,3.2,*42
$GPRMC,123519,A,3737.9897,N,12704.6639,E,022.4,105.2,230394,,*6A
$PSSN,123519,240322,0,105.2,0,3.2,*42
$GPRMC,123519,A,3737.9895,N,12704.6646,E,022.4,105.2,230394,,*6A
$PSSN,123519,240322,0,105.2,0,3.2,*42
$GPRMC,123519,A,3737.9893,N,12704.6654,E,022.4,105.2,230394,,*6A
$PSSN,123519,240322,0,105.2,0,3.2,*42
$GPRMC,123519,A,3737.9891,N,12704.6661,E,022.4,105.2,230394,,*6A
$PSSN,123519,240322,0,105.2,0,3.2,*42
$GPRMC,123519,A,3737.9889,N,12704.6668,E,022.4,105.2,230394,,*6A
$PSSN,123519,240322,0,105.2,0,3.2,*42
$GPRMC,123519,A,3737.9887,N,12704.6676,E,022.4,105.2,230394,,*6A
$PSSN,123519,240322,0,105.2,0,3.2,*42
$GPRMC,123519,A,3737.9885,N,12704.6683,E,022.4,105.2,230394,,*6A
$PSSN,123519,240322,0,105.2,0,3.2,*42
$GPRMC,123519,A,3737.9883,N,12704.6691,E,022.4,105.2,230394,,*6A
$PSSN,123519,240322,0,105.2,0,3.2,*42
$GPRMC,123519,A,3737.9881,N,12704.6698,E,022.4,105.2,230394,,*6A
$PSSN,123519,240322,0,105.2,0,3.2,*42
$GPRMC,123519,A,3737.9879,N,12704.6706,E,022.4,105.2,230394,,*6A
$PSSN,123519,240322,0,105.2,0,3.2,*42
$GPRMC,123519,A,3737.9877,N,12704.6713,E,022.4,105.2,230394,,*6A
$PSSN,123519,240322,0,105.2,0,3.2,*42
$GPRMC,123519,A,3737.9875,N,12704.6721,E,022.4,105.2,230394,,*6A
$PSSN,123519,240322,0,105.2,0,3.2,*42
$GPRMC,123519,A,3737.9873,N,12704.6728,E,022.4,105.2,230394,,*6A
$PSSN,123519,240322,0,105.2,0,3.2,*42
$GPRMC,123519,A,3737.9871,N,12704.6736,E,022.4,105.2,230394,,*6A
$PSSN,123519,240322,0,105.2,0,3.2,*42
$GPRMC,123519,A,3737.9869,N,12704.6743,E,022.4,105.2,230394,,*6A
$PSSN,123519,240322,0,105.2,0,3.2,*42
$GPRMC,123519,A,3737.9867,N,12704.6750,E,022.4,105.2,230394,,*6A
$PSSN,123519,240322,0,105.2,0,3.2,*42
$GPRMC,123519,A,3737.9865,N,12704.6758,E,022.4,105.2,230394,,*6A
$PSSN,123519,240322,0,105.2,0,3.2,*42
$GPRMC,123519,A,3737.9863,N,12704.6765,E,022.4,105.2,230394,,*6A
$PSSN,123519,240322,0,105.2,0,3.2,*42
$GPRMC,123519,A,3737.9861,N,12704.6773,E,022.4,105.2,230394,,*6A
$PSSN,123519,240322,0,105.2,0,3.2,*42
$GPRMC,123519,A,3737.9859,N,12704.6780,E,022.4,105.2,230394,,*6A
$PSSN,123519,240322,0,105.2,0,3.2,*42
$GPRMC,123519,A,3737.9859,N,12704.6780,E,022.4,49.1,230394,,*6A
$PSSN,123519,240322,0,49.1,0,3.2,*42
$GPRMC,123519,A,3737.9868,N,12704.6791,E,022.4,49.1,230394,,*6A
$PSSN,123519,240322,0,49.1,0,3.2,*42
$GPRMC,123519,A,3737.9877,N,12704.6802,E,022.4,49.1,230394,,*6A
$PSSN,123519,240322,0,49.1,0,3.2,*42
$GPRMC,123519,A,3737.9887,N,12704.6813,E,022.4,49.1,230394,,*6A
$PSSN,123519,240322,0,49.1,0,3.2,*42
$GPRMC,123519,A,3737.9896,N,12704.6823,E,022.4,49.1,230394,,*6A
$PSSN,123519,240322,0,49.1,0,3.2,*42
$GPRMC,123519,A,3737.9906,N,12704.6834,E,022.4,49.1,230394,,*6A
$PSSN,123519,240322,0,49.1,0,3.2,*42
$GPRMC,123519,A,3737.9915,N,12704.6845,E,022.4,49.1,230394,,*6A
$PSSN,123519,240322,0,49.1,0,3.2,*42
$GPRMC,123519,A,3737.9924,N,12704.6856,E,022.4,49.1,230394,,*6A
$PSSN,123519,240322,0,49.1,0,3.2,*42
$GPRMC,123519,A,3737.9934,N,12704.6867,E,022.4,49.1,230394,,*6A
$PSSN,123519,240322,0,49.1,0,3.2,*42
$GPRMC,123519,A,3737.9943,N,12704.6877,E,022.4,49.1,230394,,*6A
$PSSN,123519,240322,0,49.1,0,3.2,*42
$GPRMC,123519,A,3737.9952,N,12704.6888,E,022.4,49.1,230394,,*6A
$PSSN,123519,240322,0,49.1,0,3.2,*42
$GPRMC,123519,A,3737.9962,N,12704.6899,E,022.4,49.1,230394,,*6A
$PSSN,123519,240322,0,49.1,0,3.2,*42
$GPRMC,123519,A,3737.9971,N,12704.6910,E,022.4,49.1,230394,,*6A
$PSSN,123519,240322,0,49.1,0,3.2,*42
$GPRMC,123519,A,3737.9980,N,12704.6921,E,022.4,49.1,230394,,*6A
$PSSN,123519,240322,0,49.1,0,3.2,*42
$GPRMC,123519,A,3737.9990,N,12704.6931,E,022.4,49.1,230394,,*6A
$PSSN,123519,240322,0,49.1,0,3.2,*42
$GPRMC,123519,A,3737.9999,N,12704.6942,E,022.4,49.1,230394,,*6A
$PSSN,123519,240322,0,49.1,0,3.2,*42
$GPRMC,123519,A,3738.0008,N,12704.6953,E,022.4,49.1,230394,,*6A
$PSSN,123519,240322,0,49.1,0,3.2,*42
$GPRMC,123519,A,3738.0018,N,12704.6964,E,022.4,49.1,230394,,*6A
$PSSN,123519,240322,0,49.1,0,3.2,*42
$GPRMC,123519,A,3738.0027,N,12704.6975,E,022.4,49.1,230394,,*6A
$PSSN,123519,240322,0,49.1,0,3.2,*42
$GPRMC,123519,A,3738.0036,N,12704.6985,E,022.4,49.1,230394,,*6A
$PSSN,123519,240322,0,49.1,0,3.2,*42
$GPRMC,123519,A,3738.0046,N,12704.6996,E,022.4,49.1,230394,,*6A
$PSSN,123519,240322,0,49.1,0,3.2,*42
$GPRMC,123519,A,3738.0055,N,12704.7007,E,022.4,49.1,230394,,*6A
$PSSN,123519,240322,0,49.1,0,3.2,*42
$GPRMC,123519,A,3738.0064,N,12704.7018,E,022.4,49.1,230394,,*6A
$PSSN,123519,240322,0,49.1,0,3.2,*42
$GPRMC,123519,A,3738.0074,N,12704.7029,E,022.4,49.1,230394,,*6A
$PSSN,123519,240322,0,49.1,0,3.2,*42
$GPRMC,123519,A,3738.0083,N,12704.7039,E,022.4,49.1,230394,,*6A
$PSSN,123519,240322,0,49.1,0,3.2,*42
$GPRMC,123519,A,3738.0083,N,12704.7039,E,022.4,301.7,230394,,*6A
$PSSN,123519,240322,0,301.7,0,3.2,*42
$GPRMC,123519,A,3738.0090,N,12704.7028,E,022.4,301.7,230394,,*6A
$PSSN,123519,240322,0,301.7,0,3.2,*42
$GPRMC,123519,A,3738.0097,N,12704.7018,E,022.4,301.7,230394,,*6A
$PSSN,123519,240322,0,301.7,0,3.2,*42
$GPRMC,123519,A,3738.0103,N,12704.7007,E,022.4,301.7,230394,,*6A
$PSSN,123519,240322,0,301.7,0,3.2,*42
$GPRMC,123519,A,3738.0110,N,12704.6996,E,022.4,301.7,230394,,*6A
$PSSN,123519,240322,0,301.7,0,3.2,*42
$GPRMC,123519,A,3738.0117,N,12704.6985,E,022.4,301.7,230394,,*6A
$PSSN,123519,240322,0,301.7,0,3.2,*42
$GPRMC,123519,A,3738.0124,N,12704.6974,E,022.4,301.7,230394,,*6A
$PSSN,123519,240322,0,301.7,0,3.2,*42
$GPRMC,123519,A,3738.0130,N,12704.6963,E,022.4,301.7,230394,,*6A
$PSSN,123519,240322,0,301.7,0,3.2,*42
$GPRMC,123519,A,3738.0137,N,12704.6952,E,022.4,301.7,230394,,*6A
$PSSN,123519,240322,0,301.7,0,3.2,*42
$GPRMC,123519,A,3738.0144,N,12704.6941,E,022.4,301.7,230394,,*6A
$PSSN,123519,240322,0,301.7,0,3.2,*42
$GPRMC,123519,A,3738.0151,N,12704.6930,E,022.4,301.7,230394,,*6A
$PSSN,123519,240322,0,301.7,0,3.2,*42
$GPRMC,123519,A,3738.0157,N,12704.6919,E,022.4,301.7,230394,,*6A
$PSSN,123519,240322,0,301.7,0,3.2,*42
$GPRMC,123519,A,3738.0164,N,12704.6908,E,022.4,301.7,230394,,*6A
$PSSN,123519,240322,0,301.7,0,3.2,*42
$GPRMC,123519,A,3738.0171,N,12704.6897,E,022.4,301.7,230394,,*6A
$PSSN,123519,240322,0,301.7,0,3.2,*42
$GPRMC,123519,A,3738.0178,N,12704.6886,E,022.4,301.7,230394,,*6A
$PSSN,123519,240322,0,301.7,0,3.2,*42
$GPRMC,123519,A,3738.0184,N,12704.6876,E,022.4,301.7,230394,,*6A
$PSSN,123519,240322,0,301.7,0,3.2,*42
$GPRMC,123519,A,3738.0191,N,12704.6865,E,022.4,301.7,230394,,*6A
$PSSN,123519,240322,0,301.7,0,3.2,*42
$GPRMC,123519,A,3738.0198,N,12704.6854,E,022.4,301.7,230394,,*6A
$PSSN,123519,240322,0,301.7,0,3.2,*42
$GPRMC,123519,A,3738.0205,N,12704.6843,E,022.4,301.7,230394,,*6A
$PSSN,123519,240322,0,301.7,0,3.2,*42
$GPRMC,123519,A,3738.0211,N,12704.6832,E,022.4,301.7,230394,,*6A
$PSSN,123519,240322,0,301.7,0,3.2,*42
$GPRMC,123519,A,3738.0218,N,12704.6821,E,022.4,301.7,230394,,*6A
$PSSN,123519,240322,0,301.7,0,3.2,*42
$GPRMC,123519,A,3738.0225,N,12704.6810,E,022.4,301.7,230394,,*6A
$PSSN,123519,240322,0,301.7,0,3.2,*42
$GPRMC,123519,A,3738.0232,N,12704.6799,E,022.4,301.7,230394,,*6A
$PSSN,123519,240322,0,301.7,0,3.2,*42
$GPRMC,123519,A,3738.0238,N,12704.6788,E,022.4,301.7,230394,,*6A
$PSSN,123519,240322,0,301.7,0,3.2,*42
$GPRMC,123519,A,3738.0245,N,12704.6777,E,022.4,301.7,230394,,*6A
$PSSN,123519,240322,0,301.7,0,3.2,*42