$GPRMC,123519,A,3738.0245,N,12704.6777,E,022.4,207.5,230394,,*6A
$PSSN,123519,240322,0,207.5,0,3.2,*42
$GPRMC,123519,A,3738.0208,N,12704.6758,E,022.4,207.5,230394,,*6A
$PSSN,123519,240322,0,207.5,0,3.2,*42
$GPRMC,123519,A,3738.0170,N,12704.6738,E,022.4,207.5,230394,,*6A
$PSSN,123519,240322,0,207.5,0,3.2,*42
$GPRMC,123519,A,3738.0133,N,12704.6719,E,022.4,207.5,230394,,*6A
$PSSN,123519,240322,0,207.5,0,3.2,*42
$GPRMC,123519,A,3738.0095,N,12704.6699,E,022.4,207.5,230394,,*6A
$PSSN,123519,240322,0,207.5,0,3.2,*42
$GPRMC,123519,A,3738.0058,N,12704.6680,E,022.4,207.5,230394,,*6A
$PSSN,123519,240322,0,207.5,0,3.2,*42
$GPRMC,123519,A,3738.0020,N,12704.6660,E,022.4,207.5,230394,,*6A
$PSSN,123519,240322,0,207.5,0,3.2,*42
$GPRMC,123519,A,3737.9982,N,12704.6640,E,022.4,207.5,230394,,*6A
$PSSN,123519,240322,0,207.5,0,3.2,*42
$GPRMC,123519,A,3737.9945,N,12704.6621,E,022.4,207.5,230394,,*6A
$PSSN,123519,240322,0,207.5,0,3.2,*42
$GPRMC,123519,A,3737.9907,N,12704.6601,E,022.4,207.5,230394,,*6A
$PSSN,123519,240322,0,207.5,0,3.2,*42
$GPRMC,123519,A,3737.9907,N,12704.6601,E,022.4,105.2,230394,,*6A
$PSSN,123519,240322,0,105.2,0,3.2,*42
$GPRMC,123519,A,3737.9902,N,12704.6621,E,022.4,105.2,230394,,*6A
$PSSN,123519,240322,0,105.2,0,3.2,*42
$GPRMC,123519,A,3737.9897,N,12704.6641,E,022.4,105.2,230394,,*6A
$PSSN,123519,240322,0,105.2,0,3.2,*42
$GPRMC,123519,A,3737.9891,N,12704.6661,E,022.4,105.2,230394,,*6A
$PSSN,123519,240322,0,105.2,0,3.2,*42
$GPRMC,123519,A,3737.9886,N,12704.6681,E,022.4,105.2,230394,,*6A
$PSSN,123519,240322,0,105.2,0,3.2,*42
$GPRMC,123519,A,3737.9880,N,12704.6701,E,022.4,105.2,230394,,*6A
$PSSN,123519,240322,0,105.2,0,3.2,*42
$GPRMC,123519,A,3737.9875,N,12704.6721,E,022.4,105.2,230394,,*6A
$PSSN,123519,240322,0,105.2,0,3.2,*42
$GPRMC,123519,A,3737.9870,N,12704.6740,E,022.4,105.2,230394,,*6A
$PSSN,123519,240322,0,105.2,0,3.2,*42
$GPRMC,123519,A,3737.9864,N,12704.6760,E,022.4,105.2,230394,,*6A
$PSSN,123519,240322,0,105.2,0,3.2,*42
$GPRMC,123519,A,3737.9859,N,12704.6780,E,022.4,105.2,230394,,*6A
$PSSN,123519,240322,0,105.2,0,3.2,*42
$GPRMC,123519,A,3737.9859,N,12704.6780,E,022.4,49.1,230394,,*6A
$PSSN,123519,240322,0,49.1,0,3.2,*42
$GPRMC,123519,A,3737.9884,N,12704.6809,E,022.4,49.1,230394,,*6A
$PSSN,123519,240322,0,49.1,0,3.2,*42
$GPRMC,123519,A,3737.9909,N,12704.6838,E,022.4,49.1,230394,,*6A
$PSSN,123519,240322,0,49.1,0,3.2,*42
$GPRMC,123519,A,3737.9934,N,12704.6867,E,022.4,49.1,230394,,*6A
$PSSN,123519,240322,0,49.1,0,3.2,*42
$GPRMC,123519,A,3737.9959,N,12704.6895,E,022.4,49.1,230394,,*6A
$PSSN,123519,240322,0,49.1,0,3.2,*42
$GPRMC,123519,A,3737.9983,N,12704.6924,E,022.4,49.1,230394,,*6A
$PSSN,123519,240322,0,49.1,0,3.2,*42
$GPRMC,123519,A,3738.0008,N,12704.6953,E,022.4,49.1,230394,,*6A
$PSSN,123519,240322,0,49.1,0,3.2,*42
$GPRMC,123519,A,3738.0033,N,12704.6982,E,022.4,49.1,230394,,*6A
$PSSN,123519,240322,0,49.1,0,3.2,*42
$GPRMC,123519,A,3738.0058,N,12704.7011,E,022.4,49.1,230394,,*6A
$PSSN,123519,240322,0,49.1,0,3.2,*42
$GPRMC,123519,A,3738.0083,N,12704.7039,E,022.4,49.1,230394,,*6A
$PSSN,123519,240322,0,49.1,0,3.2,*42
$GPRMC,123519,A,3738.0083,N,12704.7039,E,022.4,301.7,230394,,*6A
$PSSN,123519,240322,0,301.7,0,3.2,*42
$GPRMC,123519,A,3738.0101,N,12704.7010,E,022.4,301.7,230394,,*6A
$PSSN,123519,240322,0,301.7,0,3.2,*42
$GPRMC,123519,A,3738.0119,N,12704.6981,E,022.4,301.7,230394,,*6A
$PSSN,123519,240322,0,301.7,0,3.2,*42
$GPRMC,123519,A,3738.0137,N,12704.6952,E,022.4,301.7,230394,,*6A
$PSSN,123519,240322,0,301.7,0,3.2,*42
$GPRMC,123519,A,3738.0155,N,12704.6923,E,022.4,301.7,230394,,*6A
$PSSN,123519,240322,0,301.7,0,3.2,*42
$GPRMC,123519,A,3738.0173,N,12704.6894,E,022.4,301.7,230394,,*6A
$PSSN,123519,240322,0,301.7,0,3.2,*42
$GPRMC,123519,A,3738.0191,N,12704.6865,E,022.4,301.7,230394,,*6A
$PSSN,123519,240322,0,301.7,0,3.2,*42
$GPRMC,123519,A,3738.0209,N,12704.6835,E,022.4,301.7,230394,,*6A
$PSSN,123519,240322,0,301.7,0,3.2,*42
$GPRMC,123519,A,3738.0227,N,12704.6806,E,022.4,301.7,230394,,*6A
$PSSN,123519,240322,0,301.7,0,3.2,*42
$GPRMC,123519,A,3738.0245,N,12704.6777,E,022.4,301.7,230394,,*6A
$PSSN,123519,240322,0,301.7,0,3.2,*42