$GNRMC,054124.00,V,,,,,,,110324,,,N*60
$GNGGA,054124.00,,,,,0,00,,,M,,M,,*50
$GNGNS,054124.00,,,,,NNNN,00,,,,,*7B
$PSSN,HRP,054124.00,110324,,,,,,,00,0,,E*20
$GNGFA,054124.00,,,,,,,,VVV*1B
$PSSN,SNC,[0,106902000,2305,[1,1,6,0]]*4E
$GNRMC,054125.00,V,,,,,,,110324,,,N*61
$GNGGA,054125.00,,,,,0,00,,,M,,M,,*51
$GNGNS,054125.00,,,,,NNNN,00,,,,,*7A
$PSSN,HRP,054125.00,110324,,,,,,,00,0,,E*21
$GNGFA,054125.00,,,,,,,,VVV*1A
$PSSN,SNC,[0,106903000,2305,[1,1,6,0]]*4F
$GNRMC,054126.00,V,,,,,,,110324,,,N*62
$GNGGA,054126.00,,,,,0,00,,,M,,M,,*52
$GNGNS,054126.00,,,,,NNNN,00,,,,,*79
$PSSN,HRP,054126.00,110324,,,,,,,00,0,,E*22
$GNGFA,054126.00,,,,,,,,VVV*19
$PSSN,SNC,[0,106904000,2305,[1,1,6,0]]*48
$GNRMC,054127.00,V,,,,,,,110324,,,N*63
$GNGGA,054127.00,,,,,0,00,,,M,,M,,*53
$GNGNS,054127.00,,,,,NNNN,00,,,,,*78
$PSSN,HRP,054127.00,110324,,,,,,,00,0,,E*23
$GNGFA,054127.00,,,,,,,,VVV*18
$PSSN,SNC,[0,106905000,2305,[1,1,6,0]]*49
$GNRMC,054128.00,V,,,,,,,110324,,,N*6C
$GNGGA,054128.00,,,,,0,00,,,M,,M,,*5C
$GNGNS,054128.00,,,,,NNNN,00,,,,,*77
$PSSN,HRP,054128.00,110324,,,,,,,00,0,,E*2C
$GNGFA,054128.00,,,,,,,,VVV*17
$PSSN,SNC,[0,106906000,2305,[1,1,6,0]]*4A
$GNRMC,054129.00,V,,,,,,,110324,,,N*6D
$GNGGA,054129.00,,,,,0,00,,,M,,M,,*5D
$GNGNS,054129.00,,,,,NNNN,00,,,,,*76
$PSSN,HRP,054129.00,110324,,,,,,,00,0,,E*2D
$GNGFA,054129.00,,,,,,,,VVV*16
$PSSN,SNC,[0,106907000,2305,[1,1,6,0]]*4B
$GNRMC,054130.00,V,,,,,,,110324,,,N*65
$GNGGA,054130.00,,,,,0,00,,,M,,M,,*55
$GNGNS,054130.00,,,,,NNNN,00,,,,,*7E
$PSSN,HRP,054130.00,110324,,,,,,,00,0,,E*25
$GNGFA,054130.00,,,,,,,,VVV*1E
$PSSN,SNC,[0,106908000,2305,[1,1,6,0]]*44
$GNRMC,054131.00,V,,,,,,,110324,,,N*64
$GNGGA,054131.00,,,,,0,00,,,M,,M,,*54
$GNGNS,054131.00,,,,,NNNN,00,,,,,*7F
$PSSN,HRP,054131.00,110324,,,,,,,00,0,,E*24
$GNGFA,054131.00,,,,,,,,VVV*1F
$PSSN,SNC,[0,106909000,2305,[1,1,6,0]]*45
$GNRMC,054132.00,V,,,,,,,110324,,,N*67
$GNGGA,054132.00,,,,,0,00,,,M,,M,,*57
$GNGNS,054132.00,,,,,NNNN,00,,,,,*7C
$PSSN,HRP,054132.00,110324,,,,,,,00,0,,E*27
$GNGFA,054132.00,,,,,,,,VVV*1C
$PSSN,SNC,[0,106910000,2305,[1,1,6,0]]*4D
$GNRMC,054148.00,V,,,,,,,110324,,,N*6A
$GNGGA,054148.00,,,,,0,00,,,M,,M,,*5A
$GNGNS,054148.00,,,,,NNNN,00,,,,,*71
$PSSN,HRP,054148.00,110324,,,,,,,00,0,,E*2A
$GNGFA,054148.00,,,,,,,,VVV*11
$PSSN,SNC,[0,106926000,2305,[1,1,6,0]]*48
$GNRMC,054149.00,V,,,,,,,110324,,,N*6B
$GNGGA,054149.00,,,,,0,00,,,M,,M,,*5B
$GNGNS,054149.00,,,,,NNNN,00,,,,,*70
$PSSN,HRP,054149.00,110324,,,,,,,00,0,,E*2B
$GNGFA,054149.00,,,,,,,,VVV*10
$PSSN,SNC,[0,106927000,2305,[1,1,6,0]]*49
$GNRMC,054150.00,V,,,,,,,110324,,,N*63
$GNGGA,054150.00,,,,,0,00,,,M,,M,,*53
$GNGNS,054150.00,,,,,NNNN,00,,,,,*78
$PSSN,HRP,054150.00,110324,,,,,,,00,0,,E*23
$GNGFA,054150.00,,,,,,,,VVV*18
$PSSN,SNC,[0,106928000,2305,[1,1,6,0]]*46
$GNRMC,054151.00,V,,,,,,,110324,,,N*62
$GNGGA,054151.00,,,,,0,00,,,M,,M,,*52
$GNGNS,054151.00,,,,,NNNN,00,,,,,*79
$PSSN,HRP,054151.00,110324,,,,,,,00,0,,E*22
$GNGFA,054151.00,,,,,,,,VVV*19
$PSSN,SNC,[0,106929000,2305,[1,1,6,0]]*47
$GNRMC,054152.00,V,,,,,,,110324,,,N*61
$GNGGA,054152.00,,,,,0,00,,,M,,M,,*51
$GNGNS,054152.00,,,,,NNNN,00,,,,,*7A
$PSSN,HRP,054152.00,110324,,,,,,,00,0,,E*21
$GNGFA,054152.00,,,,,,,,VVV*1A
$PSSN,SNC,[0,106930000,2305,[1,1,6,0]]*4F
$GNRMC,054153.00,V,,,,,,,110324,,,N*60
$GNGGA,054153.00,,,,,0,00,,,M,,M,,*50
$GNGNS,054153.00,,,,,NNNN,00,,,,,*7B
$PSSN,HRP,054153.00,110324,,,,,,,00,0,,E*20
$GNGFA,054153.00,,,,,,,,VVV*1B
$PSSN,SNC,[0,106931000,2305,[1,1,6,0]]*4E
$GNRMC,054154.00,V,,,,,,,110324,,,N*67
$GNGGA,054154.00,,,,,0,00,,,M,,M,,*57
$GNGNS,054154.00,,,,,NNNN,00,,,,,*7C
$PSSN,HRP,054154.00,110324,,,,,,,00,0,,E*27
$GNGFA,054154.00,,,,,,,,VVV*1C
$PSSN,SNC,[0,106932000,2305,[1,1,6,0]]*4D
$GNRMC,054155.00,V,,,,,,,110324,,,N*66
$GNGGA,054155.00,,,,,0,00,,,M,,M,,*56
$GNGNS,054155.00,,,,,NNNN,00,,,,,*7D
$PSSN,HRP,054155.00,110324,,,,,,,00,0,,E*26
$GNGFA,054155.00,,,,,,,,VVV*1D
$PSSN,SNC,[0,106933000,2305,[1,1,6,0]]*4C
$GNRMC,054156.00,V,,,,,,,110324,,,N*65
$GNGGA,054156.00,,,,,0,00,,,M,,M,,*55
$GNGNS,054156.00,,,,,NNNN,00,,,,,*7E
$PSSN,HRP,054156.00,110324,,,,,,,00,0,,E*25
$GNGFA,054156.00,,,,,,,,VVV*1E
$PSSN,SNC,[0,106934000,2305,[1,1,6,0]]*4B
$GNRMC,054157.00,V,,,,,,,110324,,,N*64
$GNGGA,054157.00,,,,,0,00,,,M,,M,,*54
$GNGNS,054157.00,,,,,NNNN,00,,,,,*7F
$PSSN,HRP,054157.00,110324,,,,,,,00,0,,E*24
$GNGFA,054157.00,,,,,,,,VVV*1F
$PSSN,SNC,[0,106935000,2305,[1,1,6,0]]*4A
$GNRMC,054158.00,V,,,,,,,110324,,,N*6B
$GNGGA,054158.00,,,,,0,00,,,M,,M,,*5B
$GNGNS,054158.00,,,,,NNNN,00,,,,,*70
$PSSN,HRP,054158.00,110324,,,,,,,00,0,,E*2B
$GNGFA,054158.00,,,,,,,,VVV*10
$PSSN,SNC,[0,106936000,2305,[1,1,6,0]]*49
$GNRMC,054159.00,V,,,,,,,110324,,,N*6A
$GNGGA,054159.00,,,,,0,00,,,M,,M,,*5A
$GNGNS,054159.00,,,,,NNNN,00,,,,,*71
$PSSN,HRP,054159.00,110324,,,,,,,00,0,,E*2A
$GNGFA,054159.00,,,,,,,,VVV*11
$PSSN,SNC,[0,106937000,2305,[1,1,6,0]]*48
$GNRMC,054200.00,V,,,,,,,110324,,,N*65
$GNGGA,054200.00,,,,,0,00,,,M,,M,,*55
$GNGNS,054200.00,,,,,NNNN,00,,,,,*7E
$PSSN,HRP,054200.00,110324,,,,,,,00,0,,E*25
$GNGFA,054200.00,,,,,,,,VVV*1E
$PSSN,SNC,[0,106938000,2305,[1,1,6,0]]*47
$GNRMC,060821.00,A,3737.7564838,N,12704.7385408,E,0.0,,110324,8.8,W,D*1C
$GNGGA,060821.00,3737.7564838,N,12704.7385408,E,5,12,1.1,31.2654,M,19.6707,M,2.0,0005*6E
$GNGNS,060821.00,3737.7564838,N,12704.7385408,E,FNFF,12,1.1,31.2654,19.6707,,*61
$GPGNS,060821.00,,,,,,05,,,,2.0,5*72
$GAGNS,060821.00,,,,,,03,,,,2.0,5*65
$GBGNS,060821.00,,,,,,04,,,,2.0,5*61
$PSSN,HRP,060821.00,110324,189.732,,0.014,0.539,,0.577,21,2,8.835,W*19
$GNGFA,060821.00,,,0.395,0.220,66.504,0.892,,VVV*2D
$PSSN,SNC,[0,108519000,2305,[1,2,0,0]]*43
$GNRMC,060822.00,A,3737.7564864,N,12704.7385607,E,0.0,,110324,8.8,W,D*1B
$GNGGA,060822.00,3737.7564864,N,12704.7385607,E,5,12,1.1,31.2207,M,19.6707,M,2.0,0005*6B
$GNGNS,060822.00,3737.7564864,N,12704.7385607,E,FNFF,12,1.1,31.2207,19.6707,,*64
$GPGNS,060822.00,,,,,,05,,,,2.0,5*71
$GAGNS,060822.00,,,,,,03,,,,2.0,5*66
$GBGNS,060822.00,,,,,,04,,,,2.0,5*62
$PSSN,HRP,060822.00,110324,189.716,,-0.074,0.542,,0.576,21,2,8.835,W*3A
$GNGFA,060822.00,,,0.390,0.217,66.477,0.879,,VVV*2F
$PSSN,SNC,[0,108520000,2305,[1,2,0,0]]*49
$GNRMC,060823.00,A,3737.7564836,N,12704.7385627,E,0.0,,110324,8.8,W,D*1F
$GNGGA,060823.00,3737.7564836,N,12704.7385627,E,5,12,1.1,31.1733,M,19.6707,M,2.0,0005*6E
$GNGNS,060823.00,3737.7564836,N,12704.7385627,E,FNFF,12,1.1,31.1733,19.6707,,*61
$GPGNS,060823.00,,,,,,05,,,,2.0,5*70
$GAGNS,060823.00,,,,,,03,,,,2.0,5*67
$GBGNS,060823.00,,,,,,04,,,,2.0,5*63
$PSSN,HRP,060823.00,110324,189.642,,-0.113,0.537,,0.574,21,2,8.835,W*3B
$GNGFA,060823.00,,,0.384,0.214,66.447,0.867,,VVV*24
$PSSN,SNC,[0,108521000,2305,[1,2,0,0]]*48
$GNRMC,060824.00,A,3737.7564758,N,12704.7385565,E,0.0,,110324,8.8,W,D*1A
$GNGGA,060824.00,3737.7564758,N,12704.7385565,E,5,12,1.1,31.1285,M,19.6707,M,2.0,0005*63
$GNGNS,060824.00,3737.7564758,N,12704.7385565,E,FNFF,12,1.1,31.1285,19.6707,,*6C
$GPGNS,060824.00,,,,,,05,,,,2.0,5*77
$GAGNS,060824.00,,,,,,03,,,,2.0,5*60
$GBGNS,060824.00,,,,,,04,,,,2.0,5*64
$PSSN,HRP,060824.00,110324,189.754,,-0.032,0.534,,0.574,21,2,8.835,W*3B
$GNGFA,060824.00,,,0.379,0.211,66.422,0.856,,VVV*25
$PSSN,SNC,[0,108522000,2305,[1,2,0,0]]*4B
$GNRMC,060825.00,A,3737.7564701,N,12704.7385530,E,0.0,,110324,8.8,W,D*17
$GNGGA,060825.00,3737.7564701,N,12704.7385530,E,5,12,1.1,31.0662,M,19.6707,M,2.0,0005*62
$GNGNS,060825.00,3737.7564701,N,12704.7385530,E,FNFF,12,1.1,31.0662,19.6707,,*6D
$GPGNS,060825.00,,,,,,05,,,,2.0,5*76
$GAGNS,060825.00,,,,,,03,,,,2.0,5*61
$GBGNS,060825.00,,,,,,04,,,,2.0,5*65
$PSSN,HRP,060825.00,110324,189.804,,0.023,0.538,,0.574,21,2,8.835,W*11
$GNGFA,060825.00,,,0.375,0.209,66.441,0.844,,VVV*27
$PSSN,SNC,[0,108523000,2305,[1,2,0,0]]*4A
$GNRMC,060826.00,A,3737.7564710,N,12704.7385458,E,0.0,,110324,8.8,W,D*1B
$GNGGA,060826.00,3737.7564710,N,12704.7385458,E,5,12,1.1,31.0592,M,19.6707,M,2.0,0005*62
$GNGNS,060826.00,3737.7564710,N,12704.7385458,E,FNFF,12,1.1,31.0592,19.6707,,*6D
$GPGNS,060826.00,,,,,,05,,,,2.0,5*75
$GAGNS,060826.00,,,,,,03,,,,2.0,5*62
$GBGNS,060826.00,,,,,,04,,,,2.0,5*66
$PSSN,HRP,060826.00,110324,189.662,,-0.124,0.538,,0.575,21,2,8.835,W*36
$GNGFA,060826.00,,,0.370,0.206,66.432,0.833,,VVV*2A
$PSSN,SNC,[0,108524000,2305,[1,2,0,0]]*4D
$GNRMC,060827.00,A,3737.7564719,N,12704.7385401,E,0.0,,110324,8.8,W,D*1F
$GNGGA,060827.00,3737.7564719,N,12704.7385401,E,5,12,1.1,31.0981,M,19.6707,M,3.0,0005*69
$GNGNS,060827.00,3737.7564719,N,12704.7385401,E,FNFF,12,1.1,31.0981,19.6707,,*67
$GPGNS,060827.00,,,,,,05,,,,3.0,5*75
$GAGNS,060827.00,,,,,,03,,,,3.0,5*62
$GBGNS,060827.00,,,,,,04,,,,3.0,5*66
$PSSN,HRP,060827.00,110324,189.546,,-0.194,0.537,,0.574,21,2,8.835,W*37
$GNGFA,060827.00,,,0.366,0.204,66.430,0.823,,VVV*2D
$PSSN,SNC,[0,108525000,2305,[1,2,0,0]]*4C
$GNRMC,060828.00,A,3737.7564642,N,12704.7385266,E,0.0,,110324,8.8,W,D*18
$GNGGA,060828.00,3737.7564642,N,12704.7385266,E,5,12,1.1,31.1125,M,19.6707,M,4.0,0005*6E
$GNGNS,060828.00,3737.7564642,N,12704.7385266,E,FNFF,12,1.1,31.1125,19.6707,,*67
$GPGNS,060828.00,,,,,,05,,,,4.0,5*7D
$GAGNS,060828.00,,,,,,03,,,,4.0,5*6A
$GBGNS,060828.00,,,,,,04,,,,4.0,5*6E
$PSSN,HRP,060828.00,110324,189.574,,-0.198,0.535,,0.573,21,2,8.835,W*30
$GNGFA,060828.00,,,0.362,0.201,66.408,0.813,,VVV*2B
$PSSN,SNC,[0,108526000,2305,[1,2,0,0]]*4F
$GNRMC,060829.00,A,3737.7564563,N,12704.7385334,E,0.0,,110324,8.8,W,D*1F
$GNGGA,060829.00,3737.7564563,N,12704.7385334,E,5,12,1.1,31.1085,M,19.6707,M,5.0,0005*63
$GNGNS,060829.00,3737.7564563,N,12704.7385334,E,FNFF,12,1.1,31.1085,19.6707,,*6B
$GPGNS,060829.00,,,,,,05,,,,5.0,5*7D
$GAGNS,060829.00,,,,,,03,,,,5.0,5*6A
$GBGNS,060829.00,,,,,,04,,,,5.0,5*6E
$PSSN,HRP,060829.00,110324,189.650,,-0.042,0.535,,0.574,21,2,8.835,W*35
$GNGFA,060829.00,,,0.358,0.199,66.402,0.803,,VVV*2A
$PSSN,SNC,[0,108527000,2305,[1,2,0,0]]*4E
$GNRMC,060830.00,A,3737.7564510,N,12704.7385352,E,0.0,,110324,8.8,W,D*13
$GNGGA,060830.00,3737.7564510,N,12704.7385352,E,5,12,1.1,31.0894,M,19.6707,M,6.0,0005*65
$GNGNS,060830.00,3737.7564510,N,12704.7385352,E,FNFF,12,1.1,31.0894,19.6707,,*6E
$GPGNS,060830.00,,,,,,05,,,,6.0,5*76
$GAGNS,060830.00,,,,,,03,,,,6.0,5*61
$GBGNS,060830.00,,,,,,04,,,,6.0,5*65
$PSSN,HRP,060830.00,110324,189.750,,-0.047,0.535,,0.572,21,2,8.835,W*3F
$GNGFA,060830.00,,,0.354,0.197,66.401,0.793,,VVV*25
$PSSN,SNC,[0,108528000,2305,[1,2,0,0]]*41
$GNRMC,060831.00,A,3737.7564458,N,12704.7385379,E,0.0,,110324,8.8,W,D*16
$GNGGA,060831.00,3737.7564458,N,12704.7385379,E,5,12,1.1,31.0680,M,19.6707,M,7.0,0005*6A
$GNGNS,060831.00,3737.7564458,N,12704.7385379,E,FNFF,12,1.1,31.0680,19.6707,,*60
$GPGNS,060831.00,,,,,,05,,,,7.0,5*76
$GAGNS,060831.00,,,,,,03,,,,7.0,5*61
$GBGNS,060831.00,,,,,,04,,,,7.0,5*65
$PSSN,HRP,060831.00,110324,189.731,,-0.012,0.533,,0.573,21,2,8.835,W*3E
$GNGFA,060831.00,,,0.350,0.195,66.382,0.784,,VVV*28
$PSSN,SNC,[0,108529000,2305,[1,2,0,0]]*40
$GNRMC,060832.00,A,3737.7564395,N,12704.7385255,E,0.0,,110324,8.8,W,D*1C
$GNGGA,060832.00,3737.7564395,N,12704.7385255,E,5,12,1.1,31.0780,M,19.6707,M,8.0,0005*6E
$GNGNS,060832.00,3737.7564395,N,12704.7385255,E,FNFF,12,1.1,31.0780,19.6707,,*6B
$GPGNS,060832.00,,,,,,05,,,,8.0,5*7A
$GAGNS,060832.00,,,,,,03,,,,8.0,5*6D
$GBGNS,060832.00,,,,,,04,,,,8.0,5*69
$PSSN,HRP,060832.00,110324,189.730,,-0.104,0.536,,0.574,21,2,8.835,W*38
$GNGFA,060832.00,,,0.346,0.193,66.368,0.775,,VVV*20
$PSSN,SNC,[0,108530000,2305,[1,2,0,0]]*48
$GNRMC,060833.00,A,3737.7564353,N,12704.7385250,E,0.0,,110324,8.8,W,D*12
$GNGGA,060833.00,3737.7564353,N,12704.7385250,E,5,12,1.1,31.0718,M,19.6707,M,9.0,0005*60
$GNGNS,060833.00,3737.7564353,N,12704.7385250,E,FNFF,12,1.1,31.0718,19.6707,,*64
$GPGNS,060833.00,,,,,,05,,,,9.0,5*7A
$GAGNS,060833.00,,,,,,03,,,,9.0,5*6D
$GBGNS,060833.00,,,,,,04,,,,9.0,5*69
$PSSN,HRP,060833.00,110324,189.737,,-0.010,0.536,,0.573,21,2,8.835,W*3D
$GNGFA,060833.00,,,0.343,0.191,66.367,0.767,,VVV*2A
$PSSN,SNC,[0,108531000,2305,[1,3,3,0]]*4B
$GNRMC,060834.00,A,3737.7564339,N,12704.7385157,E,0.0,,110324,8.8,W,D*1D
$GNGGA,060834.00,3737.7564339,N,12704.7385157,E,5,12,1.1,31.0847,M,19.6707,M,10.0,0005*52
$GNGNS,060834.00,3737.7564339,N,12704.7385157,E,FNFF,12,1.1,31.0847,19.6707,,*6E
$GPGNS,060834.00,,,,,,05,,,,10.0,5*45
$GAGNS,060834.00,,,,,,03,,,,10.0,5*52
$GBGNS,060834.00,,,,,,04,,,,10.0,5*56
$PSSN,HRP,060834.00,110324,189.600,,-0.158,0.539,,0.577,21,2,8.835,W*39
$GNGFA,060834.00,,,0.339,0.189,66.364,0.759,,VVV*27
$PSSN,SNC,[0,108532000,2305,[1,3,3,0]]*48
$GNRMC,060835.00,A,3737.7564350,N,12704.7385144,E,0.0,,110324,8.8,W,D*11
$GNGGA,060835.00,3737.7564350,N,12704.7385144,E,5,12,1.1,31.0874,M,19.6707,M,11.0,0005*5F
$GNGNS,060835.00,3737.7564350,N,12704.7385144,E,FNFF,12,1.1,31.0874,19.6707,,*62
$GPGNS,060835.00,,,,,,05,,,,11.0,5*45
$GAGNS,060835.00,,,,,,03,,,,11.0,5*52
$GBGNS,060835.00,,,,,,04,,,,11.0,5*56
$PSSN,HRP,060835.00,110324,189.485,,-0.200,0.539,,0.576,21,2,8.835,W*38
$GNGFA,060835.00,,,0.336,0.187,66.363,0.751,,VVV*28
$PSSN,SNC,[0,108533000,2305,[1,3,3,0]]*49
$GNRMC,060836.00,A,3737.7564351,N,12704.7385134,E,0.0,,110324,8.8,W,D*14
$GNGGA,060836.00,3737.7564351,N,12704.7385134,E,5,14,1.1,31.1004,M,19.6707,M,12.0,0005*51
$GNGNS,060836.00,3737.7564351,N,12704.7385134,E,FFFF,14,1.1,31.1004,19.6707,,*67
$GPGNS,060836.00,,,,,,05,,,,12.0,5*45
$GLGNS,060836.00,,,,,,02,,,,12.0,5*5E
$GAGNS,060836.00,,,,,,03,,,,12.0,5*52
$GBGNS,060836.00,,,,,,04,,,,12.0,5*56
$PSSN,HRP,060836.00,110324,189.611,,-0.159,0.536,,0.575,21,2,8.835,W*37
$GNGFA,060836.00,,,0.332,0.185,66.285,0.743,,VVV*27
$PSSN,SNC,[0,108534000,2305,[1,3,3,0]]*4E
$GNRMC,060837.00,A,3737.7564349,N,12704.7385062,E,0.0,,110324,8.8,W,D*1E
$GNGGA,060837.00,3737.7564349,N,12704.7385062,E,5,14,1.1,31.1146,M,19.6707,M,13.0,0005*5D
$GNGNS,060837.00,3737.7564349,N,12704.7385062,E,FFFF,14,1.1,31.1146,19.6707,,*6A
$GPGNS,060837.00,,,,,,05,,,,13.0,5*45
$GLGNS,060837.00,,,,,,02,,,,13.0,5*5E
$GAGNS,060837.00,,,,,,03,,,,13.0,5*52
$GBGNS,060837.00,,,,,,04,,,,13.0,5*56
$PSSN,HRP,060837.00,110324,189.683,,-0.004,0.538,,0.575,21,2,8.835,W*3A
$GNGFA,060837.00,,,0.329,0.183,66.271,0.735,,VVV*20
$PSSN,SNC,[0,108535000,2305,[1,3,3,0]]*4F
$GNRMC,060838.00,A,3737.7564361,N,12704.7384999,E,0.0,,110324,8.8,W,D*17
$GNGGA,060838.00,3737.7564361,N,12704.7384999,E,5,14,1.1,31.1248,M,19.6707,M,14.0,0005*5E
$GNGNS,060838.00,3737.7564361,N,12704.7384999,E,FFFF,14,1.1,31.1248,19.6707,,*6E
$GPGNS,060838.00,,,,,,05,,,,14.0,5*4D
$GLGNS,060838.00,,,,,,02,,,,14.0,5*56
$GAGNS,060838.00,,,,,,03,,,,14.0,5*5A
$GBGNS,060838.00,,,,,,04,,,,14.0,5*5E
$PSSN,HRP,060838.00,110324,189.741,,-0.003,0.536,,0.574,21,2,8.835,W*32
$GNGFA,060838.00,,,0.326,0.182,66.246,0.727,,VVV*26
$PSSN,SNC,[0,108536000,2305,[1,3,3,0]]*4C
$GNRMC,060839.00,A,3737.7564391,N,12704.7385049,E,0.0,,110324,8.8,W,D*1C
$GNGGA,060839.00,3737.7564391,N,12704.7385049,E,5,14,1.1,31.1403,M,19.6707,M,15.0,0005*5D
$GNGNS,060839.00,3737.7564391,N,12704.7385049,E,FFFF,14,1.1,31.1403,19.6707,,*6C
$GPGNS,060839.00,,,,,,05,,,,15.0,5*4D
$GLGNS,060839.00,,,,,,02,,,,15.0,5*56
$GAGNS,060839.00,,,,,,03,,,,15.0,5*5A
$GBGNS,060839.00,,,,,,04,,,,15.0,5*5E
$PSSN,HRP,060839.00,110324,189.805,,0.093,0.534,,0.573,21,2,8.835,W*1D
$GNGFA,060839.00,,,0.323,0.180,66.249,0.720,,VVV*28
$PSSN,SNC,[0,108537000,2305,[1,4,3,0]]*4A
$GNRMC,060840.00,A,3737.7564407,N,12704.7385111,E,0.0,,110324,8.8,W,D*16
$GNGGA,060840.00,3737.7564407,N,12704.7385111,E,5,14,1.1,31.1585,M,19.6707,M,16.0,0005*5B
$GNGNS,060840.00,3737.7564407,N,12704.7385111,E,FFFF,14,1.1,31.1585,19.6707,,*69
$GPGNS,060840.00,,,,,,05,,,,16.0,5*40
$GLGNS,060840.00,,,,,,02,,,,16.0,5*5B
$GAGNS,060840.00,,,,,,03,,,,16.0,5*57
$GBGNS,060840.00,,,,,,04,,,,16.0,5*53
$PSSN,HRP,060840.00,110324,189.723,,0.074,0.535,,0.574,21,2,8.835,W*17
$GNGFA,060840.00,,,0.320,0.178,66.230,0.713,,VVV*2C
$PSSN,SNC,[0,108538000,2305,[1,3,3,0]]*42
$GNRMC,060841.00,A,3737.7564469,N,12704.7385161,E,0.0,,110324,8.8,W,D*18
$GNGGA,060841.00,3737.7564469,N,12704.7385161,E,5,14,1.1,31.1895,M,19.6707,M,17.0,0005*58
$GNGNS,060841.00,3737.7564469,N,12704.7385161,E,FFFF,14,1.1,31.1895,19.6707,,*6B
$GPGNS,060841.00,,,,,,05,,,,17.0,5*40
$GLGNS,060841.00,,,,,,02,,,,17.0,5*5B
$GAGNS,060841.00,,,,,,03,,,,17.0,5*57
$GBGNS,060841.00,,,,,,04,,,,17.0,5*53
$PSSN,HRP,060841.00,110324,189.654,,-0.137,0.534,,0.574,21,2,8.835,W*3D
$GNGFA,060841.00,,,0.317,0.177,66.217,0.706,,VVV*27
$PSSN,SNC,[0,108539000,2305,[1,3,3,0]]*43
$GNRMC,060842.00,A,3737.7564476,N,12704.7385135,E,0.0,,110324,8.8,W,D*14
$GNGGA,060842.00,3737.7564476,N,12704.7385135,E,5,14,1.1,31.1901,M,19.6707,M,18.0,0005*57
$GNGNS,060842.00,3737.7564476,N,12704.7385135,E,FFFF,14,1.1,31.1901,19.6707,,*6B
$GPGNS,060842.00,,,,,,05,,,,18.0,5*4C
$GLGNS,060842.00,,,,,,02,,,,18.0,5*57
$GAGNS,060842.00,,,,,,03,,,,18.0,5*5B
$GBGNS,060842.00,,,,,,04,,,,18.0,5*5F
$PSSN,HRP,060842.00,110324,190.056,,0.202,0.496,,0.564,23,2,8.835,W*10
$GNGFA,060842.00,,,0.315,0.175,66.220,0.700,,VVV*26
$PSSN,SNC,[0,108540000,2305,[1,3,3,0]]*4D
$GNRMC,060843.00,A,3737.7564498,N,12704.7385145,E,0.0,,110324,8.8,W,D*12
$GNGGA,060843.00,3737.7564498,N,12704.7385145,E,5,14,1.1,31.1946,M,19.6707,M,19.0,0005*53
$GNGNS,060843.00,3737.7564498,N,12704.7385145,E,FFFF,14,1.1,31.1946,19.6707,,*6E
$GPGNS,060843.00,,,,,,05,,,,19.0,5*4C
$GLGNS,060843.00,,,,,,02,,,,19.0,5*57
$GAGNS,060843.00,,,,,,03,,,,19.0,5*5B
$GBGNS,060843.00,,,,,,04,,,,19.0,5*5F
$PSSN,HRP,060843.00,110324,190.151,,0.129,0.497,,0.565,23,2,8.835,W*1D
$GNGFA,060843.00,,,0.312,0.174,66.210,0.693,,VVV*29
$PSSN,SNC,[0,108541000,2305,[1,3,3,0]]*4C
$GNRMC,060844.00,A,3737.7564514,N,12704.7385145,E,0.0,,110324,8.8,W,D*10
$GNGGA,060844.00,3737.7564514,N,12704.7385145,E,5,14,1.1,31.1869,M,19.6707,M,20.0,0005*57
$GNGNS,060844.00,3737.7564514,N,12704.7385145,E,FFFF,14,1.1,31.1869,19.6707,,*60
$GPGNS,060844.00,,,,,,05,,,,20.0,5*41
$GLGNS,060844.00,,,,,,02,,,,20.0,5*5A
$GAGNS,060844.00,,,,,,03,,,,20.0,5*56
$GBGNS,060844.00,,,,,,04,,,,20.0,5*52
$PSSN,HRP,060844.00,110324,190.306,,0.323,0.499,,0.563,23,2,8.835,W*1A
$GNGFA,060844.00,,,0.309,0.172,66.141,0.687,,VVV*20
$PSSN,SNC,[0,108542000,2305,[1,3,3,0]]*4F
$GNRMC,060845.00,A,3737.7564524,N,12704.7385172,E,0.0,,110324,8.8,W,D*16
$GNGGA,060845.00,3737.7564524,N,12704.7385172,E,5,14,1.1,31.1958,M,19.6707,M,21.0,0005*53
$GNGNS,060845.00,3737.7564524,N,12704.7385172,E,FFFF,14,1.1,31.1958,19.6707,,*65
$GPGNS,060845.00,,,,,,05,,,,21.0,5*41
$GLGNS,060845.00,,,,,,02,,,,21.0,5*5A
$GAGNS,060845.00,,,,,,03,,,,21.0,5*56
$GBGNS,060845.00,,,,,,04,,,,21.0,5*52
$PSSN,HRP,060845.00,110324,190.464,,0.264,0.496,,0.564,23,2,8.835,W*12
$GNGFA,060845.00,,,0.306,0.171,66.144,0.681,,VVV*2E
$PSSN,SNC,[0,108543000,2305,[1,3,3,0]]*4E
$GNRMC,060846.00,A,3737.7565000,N,12704.7387096,E,0.0,,110324,8.8,W,D*1E
$GNGGA,060846.00,3737.7565000,N,12704.7387096,E,2,18,1.0,30.7404,M,19.6708,M,22.0,0005*5E
$GNGNS,060846.00,3737.7565000,N,12704.7387096,E,DDDD,18,1.0,30.7404,19.6708,,*6C
$GPGNS,060846.00,,,,,,05,,,,22.0,5*41
$GLGNS,060846.00,,,,,,02,,,,22.0,5*5A
$GAGNS,060846.00,,,,,,04,,,,22.0,5*51
$GBGNS,060846.00,,,,,,07,,,,22.0,5*51
$PSSN,HRP,060846.00,110324,190.081,,0.069,0.501,,0.567,23,2,8.835,W*1D
$GNGFA,060846.00,8.960,9.421,0.362,0.158,82.095,0.442,,VVV*27
$PSSN,SNC,[0,108544000,2305,[1,3,3,0]]*49
$GNRMC,060847.00,A,3737.7565399,N,12704.7388573,E,0.0,,110324,8.8,W,D*1D
$GNGGA,060847.00,3737.7565399,N,12704.7388573,E,2,18,1.0,30.3914,M,19.6708,M,23.0,0005*54
$GNGNS,060847.00,3737.7565399,N,12704.7388573,E,DDDD,18,1.0,30.3914,19.6708,,*67
$GPGNS,060847.00,,,,,,05,,,,23.0,5*41
$GLGNS,060847.00,,,,,,02,,,,23.0,5*5A
$GAGNS,060847.00,,,,,,04,,,,23.0,5*51
$GBGNS,060847.00,,,,,,07,,,,23.0,5*51
$PSSN,HRP,060847.00,110324,190.024,,0.052,0.502,,0.565,23,2,8.835,W*1A
$GNGFA,060847.00,8.689,9.378,0.351,0.155,81.326,0.440,,VVV*22
$PSSN,SNC,[0,108545000,2305,[1,3,3,0]]*48
$GNRMC,060848.00,A,3737.7565566,N,12704.7388880,E,0.0,,110324,8.8,W,D*15
$GNGGA,060848.00,3737.7565566,N,12704.7388880,E,2,18,1.0,30.3085,M,19.6708,M,24.0,0005*5A
$GNGNS,060848.00,3737.7565566,N,12704.7388880,E,DDDD,18,1.0,30.3085,19.6708,,*6E
$GPGNS,060848.00,,,,,,05,,,,24.0,5*49
$GLGNS,060848.00,,,,,,02,,,,24.0,5*52
$GAGNS,060848.00,,,,,,04,,,,24.0,5*59
$GBGNS,060848.00,,,,,,07,,,,24.0,5*59
$PSSN,HRP,060848.00,110324,190.060,,0.153,0.499,,0.564,23,2,8.835,W*17
$GNGFA,060848.00,11.101,12.541,0.349,0.167,79.947,0.457,,VVV*20
$PSSN,SNC,[0,108546000,2305,[1,4,3,0]]*4C
$GNRMC,060849.00,A,3737.7565691,N,12704.7388903,E,0.0,,110324,8.8,W,D*15
$GNGGA,060849.00,3737.7565691,N,12704.7388903,E,2,18,1.0,30.3004,M,19.6708,M,25.0,0005*52
$GNGNS,060849.00,3737.7565691,N,12704.7388903,E,DDDD,18,1.0,30.3004,19.6708,,*67
$GPGNS,060849.00,,,,,,05,,,,25.0,5*49
$GLGNS,060849.00,,,,,,02,,,,25.0,5*52
$GAGNS,060849.00,,,,,,04,,,,25.0,5*59
$GBGNS,060849.00,,,,,,07,,,,25.0,5*59
$PSSN,HRP,060849.00,110324,189.957,,0.060,0.499,,0.564,23,2,8.835,W*12
$GNGFA,060849.00,11.485,13.514,0.313,0.158,78.496,0.427,,VVV*2D
$PSSN,SNC,[0,108547000,2305,[1,4,3,0]]*4D
$GNRMC,060850.00,A,3737.7565710,N,12704.7388944,E,0.0,,110324,8.8,W,D*16
$GNGGA,060850.00,3737.7565710,N,12704.7388944,E,2,18,1.0,30.3151,M,19.6708,M,26.0,0005*53
$GNGNS,060850.00,3737.7565710,N,12704.7388944,E,DDDD,18,1.0,30.3151,19.6708,,*65
$GPGNS,060850.00,,,,,,05,,,,26.0,5*42
$GLGNS,060850.00,,,,,,02,,,,26.0,5*59
$GAGNS,060850.00,,,,,,04,,,,26.0,5*52
$GBGNS,060850.00,,,,,,07,,,,26.0,5*52
$PSSN,HRP,060850.00,110324,190.262,,0.203,0.498,,0.562,23,2,8.835,W*1F
$GNGFA,060850.00,12.915,14.905,0.315,0.157,79.157,0.421,,VVV*2F
$PSSN,SNC,[0,108548000,2305,[1,1,0,0]]*44
$GNRMC,060851.00,A,3737.7565801,N,12704.7388898,E,0.0,,110324,8.8,W,D*18
$GNGGA,060851.00,3737.7565801,N,12704.7388898,E,2,18,1.0,30.3236,M,19.6708,M,27.0,0005*5E
$GNGNS,060851.00,3737.7565801,N,12704.7388898,E,DDDD,18,1.0,30.3236,19.6708,,*69
$GPGNS,060851.00,,,,,,05,,,,27.0,5*42
$GLGNS,060851.00,,,,,,02,,,,27.0,5*59
$GAGNS,060851.00,,,,,,04,,,,27.0,5*52
$GBGNS,060851.00,,,,,,07,,,,27.0,5*52
$PSSN,HRP,060851.00,110324,189.972,,0.135,0.495,,0.561,23,2,8.835,W*14
$GNGFA,060851.00,13.695,16.162,0.305,0.157,78.014,0.417,,VVV*20
$PSSN,SNC,[0,108549000,2305,[1,2,0,0]]*46
$GNRMC,060852.00,A,3737.7565802,N,12704.7388956,E,0.0,,110324,8.8,W,D*1B
$GNGGA,060852.00,3737.7565802,N,12704.7388956,E,2,17,1.0,30.3232,M,19.6708,M,28.0,0005*59
$GNGNS,060852.00,3737.7565802,N,12704.7388956,E,DDDD,17,1.0,30.3232,19.6708,,*61
$GPGNS,060852.00,,,,,,05,,,,28.0,5*4E
$GLGNS,060852.00,,,,,,01,,,,28.0,5*56
$GAGNS,060852.00,,,,,,04,,,,28.0,5*5E
$GBGNS,060852.00,,,,,,07,,,,28.0,5*5E
$PSSN,HRP,060852.00,110324,190.006,,0.003,0.496,,0.564,23,2,8.835,W*17
$GNGFA,060852.00,14.341,17.430,0.295,0.158,76.915,0.416,,VVV*2B
$PSSN,SNC,[0,108550000,2305,[1,2,0,0]]*4E
$GNRMC,060853.00,A,3737.7565189,N,12704.7387008,E,0.0,,110324,8.8,W,D*1D
$GNGGA,060853.00,3737.7565189,N,12704.7387008,E,5,10,1.2,30.8303,M,19.6707,M,2.0,0005*62
$GNGNS,060853.00,3737.7565189,N,12704.7387008,E,FFFN,10,1.2,30.8303,19.6707,,*6D
$GPGNS,060853.00,,,,,,05,,,,2.0,5*77
$GLGNS,060853.00,,,,,,02,,,,2.0,5*6C
$GAGNS,060853.00,,,,,,03,,,,2.0,5*60
$PSSN,HRP,060853.00,110324,189.952,,0.043,0.497,,0.563,23,2,8.835,W*14
$GNGFA,060853.00,,,0.294,0.165,66.556,0.660,,VVV*2E
$PSSN,SNC,[0,108551000,2305,[1,2,0,0]]*4F
$GNRMC,060854.00,A,3737.7564881,N,12704.7386191,E,0.0,,110324,8.8,W,D*1A
$GNGGA,060854.00,3737.7564881,N,12704.7386191,E,5,14,1.1,31.0080,M,19.6707,M,2.0,0005*63
$GNGNS,060854.00,3737.7564881,N,12704.7386191,E,FFFF,14,1.1,31.0080,19.6707,,*64
$GPGNS,060854.00,,,,,,05,,,,2.0,5*70
$GLGNS,060854.00,,,,,,02,,,,2.0,5*6B
$GAGNS,060854.00,,,,,,03,,,,2.0,5*67
$GBGNS,060854.00,,,,,,04,,,,2.0,5*63
$PSSN,HRP,060854.00,110324,190.075,,0.173,0.493,,0.561,23,2,8.835,W*13
$GNGFA,060854.00,,,0.289,0.161,66.269,0.641,,VVV*29
$PSSN,SNC,[0,108552000,2305,[1,2,0,0]]*4C
$GNRMC,060855.00,A,3737.7564567,N,12704.7385314,E,0.0,,110324,8.8,W,D*12
$GNGGA,060855.00,3737.7564567,N,12704.7385314,E,5,14,1.1,31.2223,M,19.6707,M,2.0,0005*62
$GNGNS,060855.00,3737.7564567,N,12704.7385314,E,FFFF,14,1.1,31.2223,19.6707,,*65
$GPGNS,060855.00,,,,,,05,,,,2.0,5*71
$GLGNS,060855.00,,,,,,02,,,,2.0,5*6A
$GAGNS,060855.00,,,,,,03,,,,2.0,5*66
$GBGNS,060855.00,,,,,,04,,,,2.0,5*62
$PSSN,HRP,060855.00,110324,189.946,,0.036,0.494,,0.563,23,2,8.835,W*16
$GNGFA,060855.00,,,0.286,0.160,66.208,0.633,,VVV*24
$PSSN,SNC,[0,108553000,2305,[1,2,0,0]]*4D
$GNRMC,060856.00,A,3737.7564469,N,12704.7385094,E,0.0,,110324,8.8,W,D*15
$GNGGA,060856.00,3737.7564469,N,12704.7385094,E,5,14,1.1,31.3175,M,19.6707,M,2.0,0005*64
$GNGNS,060856.00,3737.7564469,N,12704.7385094,E,FFFF,14,1.1,31.3175,19.6707,,*63
$GPGNS,060856.00,,,,,,05,,,,2.0,5*72
$GLGNS,060856.00,,,,,,02,,,,2.0,5*69
$GAGNS,060856.00,,,,,,03,,,,2.0,5*65
$GBGNS,060856.00,,,,,,04,,,,2.0,5*61
$PSSN,HRP,060856.00,110324,190.081,,0.144,0.498,,0.563,23,2,8.835,W*17
$GNGFA,060856.00,,,0.283,0.158,66.181,0.627,,VVV*2E
$PSSN,SNC,[0,108554000,2305,[1,2,0,0]]*4A
$GNRMC,060857.00,A,3737.7564432,N,12704.7384952,E,0.0,,110324,8.8,W,D*18
$GNGGA,060857.00,3737.7564432,N,12704.7384952,E,5,14,1.1,31.3839,M,19.6707,M,2.0,0005*68
$GNGNS,060857.00,3737.7564432,N,12704.7384952,E,FFFF,14,1.1,31.3839,19.6707,,*6F
$GPGNS,060857.00,,,,,,05,,,,2.0,5*73
$GLGNS,060857.00,,,,,,02,,,,2.0,5*68
$GAGNS,060857.00,,,,,,03,,,,2.0,5*64
$GBGNS,060857.00,,,,,,04,,,,2.0,5*60
$PSSN,HRP,060857.00,110324,190.050,,0.127,0.499,,0.565,23,2,8.835,W*18
$GNGFA,060857.00,,,0.281,0.157,66.140,0.621,,VVV*29
$PSSN,SNC,[0,108555000,2305,[1,2,0,0]]*4B
$GNRMC,060858.00,A,3737.7564408,N,12704.7384801,E,0.0,,110324,8.8,W,D*19
$GNGGA,060858.00,3737.7564408,N,12704.7384801,E,5,12,1.1,31.4468,M,19.6707,M,2.0,0005*60
$GNGNS,060858.00,3737.7564408,N,12704.7384801,E,FNFF,12,1.1,31.4468,19.6707,,*6F
$GPGNS,060858.00,,,,,,05,,,,2.0,5*7C
$GAGNS,060858.00,,,,,,03,,,,2.0,5*6B
$GBGNS,060858.00,,,,,,04,,,,2.0,5*6F
$PSSN,HRP,060858.00,110324,190.006,,0.018,0.495,,0.563,23,2,8.835,W*13
$GNGFA,060858.00,,,0.279,0.156,66.114,0.615,,VVV*26
$PSSN,SNC,[0,108556000,2305,[1,2,0,0]]*48
$GNRMC,060859.00,A,3737.7564337,N,12704.7384607,E,0.0,,110324,8.8,W,D*1B
$GNGGA,060859.00,3737.7564337,N,12704.7384607,E,5,12,1.1,31.4692,M,19.6707,M,2.0,0005*65
$GNGNS,060859.00,3737.7564337,N,12704.7384607,E,FNFF,12,1.1,31.4692,19.6707,,*6A
$GPGNS,060859.00,,,,,,05,,,,2.0,5*7D
$GAGNS,060859.00,,,,,,03,,,,2.0,5*6A
$GBGNS,060859.00,,,,,,04,,,,2.0,5*6E
$PSSN,HRP,060859.00,110324,189.965,,0.131,0.498,,0.565,23,2,8.835,W*17
$GNGFA,060859.00,,,0.277,0.155,66.116,0.610,,VVV*2D
$PSSN,SNC,[0,108557000,2305,[1,2,0,0]]*49
$GNRMC,060900.00,A,3737.7564312,N,12704.7384518,E,0.0,,110324,8.8,W,D*1C
$GNGGA,060900.00,3737.7564312,N,12704.7384518,E,5,12,1.1,31.4797,M,19.6707,M,2.0,0005*66
$GNGNS,060900.00,3737.7564312,N,12704.7384518,E,FNFF,12,1.1,31.4797,19.6707,,*69
$GPGNS,060900.00,,,,,,05,,,,2.0,5*70
$GAGNS,060900.00,,,,,,03,,,,2.0,5*67
$GBGNS,060900.00,,,,,,04,,,,2.0,5*63
$PSSN,HRP,060900.00,110324,190.026,,0.126,0.496,,0.562,23,2,8.835,W*13
$GNGFA,060900.00,,,0.275,0.154,66.104,0.605,,VVV*24
$PSSN,SNC,[0,108558000,2305,[1,2,0,0]]*46
$GNRMC,060901.00,A,3737.7564268,N,12704.7384413,E,0.0,,110324,8.8,W,D*1B
$GNGGA,060901.00,3737.7564268,N,12704.7384413,E,5,12,1.1,31.5162,M,19.6707,M,2.0,0005*6C
$GNGNS,060901.00,3737.7564268,N,12704.7384413,E,FNFF,12,1.1,31.5162,19.6707,,*63
$GPGNS,060901.00,,,,,,05,,,,2.0,5*71
$GAGNS,060901.00,,,,,,03,,,,2.0,5*66
$GBGNS,060901.00,,,,,,04,,,,2.0,5*62
$PSSN,HRP,060901.00,110324,190.099,,0.300,0.501,,0.570,22,2,8.835,W*1D
$GNGFA,060901.00,,,0.273,0.153,66.110,0.600,,VVV*24
$PSSN,SNC,[0,108559000,2305,[1,2,0,0]]*47
$GNRMC,060902.00,A,3737.7564210,N,12704.7384403,E,0.0,,110324,8.8,W,D*16
$GNGGA,060902.00,3737.7564210,N,12704.7384403,E,5,14,1.1,31.5578,M,19.6707,M,2.0,0005*68
$GNGNS,060902.00,3737.7564210,N,12704.7384403,E,FFFF,14,1.1,31.5578,19.6707,,*6F
$GPGNS,060902.00,,,,,,05,,,,2.0,5*72
$GLGNS,060902.00,,,,,,02,,,,2.0,5*69
$GAGNS,060902.00,,,,,,03,,,,2.0,5*65
$GBGNS,060902.00,,,,,,04,,,,2.0,5*61
$PSSN,HRP,060902.00,110324,190.209,,0.275,0.497,,0.577,22,2,8.835,W*1F
$GNGFA,060902.00,,,0.271,0.151,66.069,0.595,,VVV*27
$PSSN,SNC,[0,108560000,2305,[1,2,0,0]]*4D
$GNRMC,060903.00,A,3737.7564145,N,12704.7384238,E,0.0,,110324,8.8,W,D*1A
$GNGGA,060903.00,3737.7564145,N,12704.7384238,E,5,14,1.1,31.6067,M,19.6707,M,2.0,0005*6C
$GNGNS,060903.00,3737.7564145,N,12704.7384238,E,FFFF,14,1.1,31.6067,19.6707,,*6B
$GPGNS,060903.00,,,,,,05,,,,2.0,5*73
$GLGNS,060903.00,,,,,,02,,,,2.0,5*68
$GAGNS,060903.00,,,,,,03,,,,2.0,5*64
$GBGNS,060903.00,,,,,,04,,,,2.0,5*60
$PSSN,HRP,060903.00,110324,190.044,,0.127,0.493,,0.578,22,2,8.835,W*1A
$GNGFA,060903.00,,,0.270,0.150,66.064,0.590,,VVV*2E
$PSSN,SNC,[0,108561000,2305,[1,2,0,0]]*4C
$GNRMC,060904.00,A,3737.7564117,N,12704.7384271,E,0.0,,110324,8.8,W,D*17
$GNGGA,060904.00,3737.7564117,N,12704.7384271,E,5,14,1.1,31.6400,M,19.6707,M,2.0,0005*64
$GNGNS,060904.00,3737.7564117,N,12704.7384271,E,FFFF,14,1.1,31.6400,19.6707,,*63
$GPGNS,060904.00,,,,,,05,,,,2.0,5*74
$GLGNS,060904.00,,,,,,02,,,,2.0,5*6F
$GAGNS,060904.00,,,,,,03,,,,2.0,5*63
$GBGNS,060904.00,,,,,,04,,,,2.0,5*67
$PSSN,HRP,060904.00,110324,190.016,,0.098,0.499,,0.577,22,2,8.835,W*1A
$GNGFA,060904.00,,,0.268,0.149,66.034,0.585,,VVV*29
$PSSN,SNC,[0,108562000,2305,[1,2,0,0]]*4F
$GNRMC,060905.00,A,3737.7564107,N,12704.7384284,E,0.0,,110324,8.8,W,D*1D
$GNGGA,060905.00,3737.7564107,N,12704.7384284,E,5,14,1.1,31.6183,M,19.6707,M,2.0,0005*60
$GNGNS,060905.00,3737.7564107,N,12704.7384284,E,FFFF,14,1.1,31.6183,19.6707,,*67
$GPGNS,060905.00,,,,,,05,,,,2.0,5*75
$GLGNS,060905.00,,,,,,02,,,,2.0,5*6E
$GAGNS,060905.00,,,,,,03,,,,2.0,5*62
$GBGNS,060905.00,,,,,,04,,,,2.0,5*66
$PSSN,HRP,060905.00,110324,190.118,,0.164,0.495,,0.575,22,2,8.835,W*18
$GNGFA,060905.00,,,0.266,0.148,66.044,0.581,,VVV*24
$PSSN,SNC,[0,108563000,2305,[1,2,0,0]]*4E
$GNRMC,060906.00,A,3737.7564151,N,12704.7384455,E,0.0,,110324,8.8,W,D*17
$GNGGA,060906.00,3737.7564151,N,12704.7384455,E,5,14,1.1,31.6050,M,19.6707,M,2.0,0005*65
$GNGNS,060906.00,3737.7564151,N,12704.7384455,E,FFFF,14,1.1,31.6050,19.6707,,*62
$GPGNS,060906.00,,,,,,05,,,,2.0,5*76
$GLGNS,060906.00,,,,,,02,,,,2.0,5*6D
$GAGNS,060906.00,,,,,,03,,,,2.0,5*61
$GBGNS,060906.00,,,,,,04,,,,2.0,5*65
$PSSN,HRP,060906.00,110324,190.025,,-0.003,0.499,,0.577,22,2,8.835,W*37
$GNGFA,060906.00,,,0.265,0.148,66.026,0.576,,VVV*28
$PSSN,SNC,[0,108564000,2305,[1,2,0,0]]*49
$GNRMC,060907.00,A,3737.7564190,N,12704.7384594,E,0.0,,110324,8.8,W,D*17
$GNGGA,060907.00,3737.7564190,N,12704.7384594,E,5,12,1.1,31.5655,M,19.6707,M,2.0,0005*63
$GNGNS,060907.00,3737.7564190,N,12704.7384594,E,FNFF,12,1.1,31.5655,19.6707,,*6C
$GPGNS,060907.00,,,,,,05,,,,2.0,5*77
$GAGNS,060907.00,,,,,,03,,,,2.0,5*60
$GBGNS,060907.00,,,,,,04,,,,2.0,5*64
$PSSN,HRP,060907.00,110324,189.794,,-0.223,0.499,,0.577,22,2,8.835,W*33
$GNGFA,060907.00,,,0.263,0.147,66.019,0.571,,VVV*2B
$PSSN,SNC,[0,108565000,2305,[1,2,0,0]]*48
$GNRMC,060908.00,A,3737.7564230,N,12704.7384729,E,0.0,,110324,8.8,W,D*15
$GNGGA,060908.00,3737.7564230,N,12704.7384729,E,5,14,1.1,31.5240,M,19.6707,M,2.0,0005*67
$GNGNS,060908.00,3737.7564230,N,12704.7384729,E,FFFF,14,1.1,31.5240,19.6707,,*60
$GPGNS,060908.00,,,,,,05,,,,2.0,5*78
$GLGNS,060908.00,,,,,,02,,,,2.0,5*63
$GAGNS,060908.00,,,,,,03,,,,2.0,5*6F
$GBGNS,060908.00,,,,,,04,,,,2.0,5*6B
$PSSN,HRP,060908.00,110324,189.917,,-0.025,0.496,,0.577,22,2,8.835,W*32
$GNGFA,060908.00,,,0.261,0.146,66.031,0.567,,VVV*2A
$PSSN,SNC,[0,108566000,2305,[1,2,0,0]]*4B
$GNRMC,060909.00,A,3737.7564274,N,12704.7384887,E,0.0,,110324,8.8,W,D*1F
$GNGGA,060909.00,3737.7564274,N,12704.7384887,E,5,13,1.1,31.5051,M,19.6707,M,2.0,0005*68
$GNGNS,060909.00,3737.7564274,N,12704.7384887,E,FFFF,13,1.1,31.5051,19.6707,,*6F
$GPGNS,060909.00,,,,,,04,,,,2.0,5*78
$GLGNS,060909.00,,,,,,02,,,,2.0,5*62
$GAGNS,060909.00,,,,,,03,,,,2.0,5*6E
$GBGNS,060909.00,,,,,,04,,,,2.0,5*6A
$PSSN,HRP,060909.00,110324,189.958,,-0.046,0.495,,0.577,22,2,8.835,W*3E
$GNGFA,060909.00,,,0.260,0.145,65.957,0.563,,VVV*27
$PSSN,SNC,[0,108567000,2305,[1,2,0,0]]*4A
$GNRMC,060910.00,A,3737.7564236,N,12704.7384945,E,0.0,,110324,8.8,W,D*1E
$GNGGA,060910.00,3737.7564236,N,12704.7384945,E,5,11,1.1,31.4768,M,19.6707,M,2.0,0005*67
$GNGNS,060910.00,3737.7564236,N,12704.7384945,E,FNFF,11,1.1,31.4768,19.6707,,*68
$GPGNS,060910.00,,,,,,04,,,,2.0,5*70
$GAGNS,060910.00,,,,,,03,,,,2.0,5*66
$GBGNS,060910.00,,,,,,04,,,,2.0,5*62
$PSSN,HRP,060910.00,110324,190.154,,0.102,0.501,,0.580,22,2,8.835,W*12
$GNGFA,060910.00,,,0.258,0.144,65.917,0.559,,VVV*28
$PSSN,SNC,[0,108568000,2305,[1,2,0,0]]*45
$GNRMC,060911.00,A,3737.7564210,N,12704.7384955,E,0.0,,110324,8.8,W,D*1A
$GNGGA,060911.00,3737.7564210,N,12704.7384955,E,5,11,1.1,31.4747,M,19.6707,M,2.0,0005*6E
$GNGNS,060911.00,3737.7564210,N,12704.7384955,E,FNFF,11,1.1,31.4747,19.6707,,*61
$GPGNS,060911.00,,,,,,04,,,,2.0,5*71
$GAGNS,060911.00,,,,,,03,,,,2.0,5*67
$GBGNS,060911.00,,,,,,04,,,,2.0,5*63
$PSSN,HRP,060911.00,110324,190.049,,0.020,0.502,,0.581,22,2,8.835,W*1D
$GNGFA,060911.00,,,0.257,0.144,65.895,0.555,,VVV*21
$PSSN,SNC,[0,108569000,2305,[1,2,0,0]]*44
$GNRMC,060912.00,A,3737.7564173,N,12704.7384984,E,0.0,,110324,8.8,W,D*13
$GNGGA,060912.00,3737.7564173,N,12704.7384984,E,5,11,1.1,31.4813,M,19.6707,M,2.0,0005*69
$GNGNS,060912.00,3737.7564173,N,12704.7384984,E,FNFF,11,1.1,31.4813,19.6707,,*66
$GPGNS,060912.00,,,,,,04,,,,2.0,5*72
$GAGNS,060912.00,,,,,,03,,,,2.0,5*64
$GBGNS,060912.00,,,,,,04,,,,2.0,5*60
$PSSN,HRP,060912.00,110324,190.040,,0.095,0.501,,0.579,22,2,8.835,W*1D
$GNGFA,060912.00,,,0.256,0.143,65.830,0.551,,VVV*2F
$PSSN,SNC,[0,108570000,2305,[1,2,0,0]]*4C
$GNRMC,060913.00,A,3737.7564186,N,12704.7385011,E,0.0,,110324,8.8,W,D*1C
$GNGGA,060913.00,3737.7564186,N,12704.7385011,E,5,14,1.1,31.4864,M,19.6707,M,2.0,0005*63
$GNGNS,060913.00,3737.7564186,N,12704.7385011,E,FFFF,14,1.1,31.4864,19.6707,,*64
$GPGNS,060913.00,,,,,,05,,,,2.0,5*72
$GLGNS,060913.00,,,,,,02,,,,2.0,5*69
$GAGNS,060913.00,,,,,,03,,,,2.0,5*65
$GBGNS,060913.00,,,,,,04,,,,2.0,5*61
$PSSN,HRP,060913.00,110324,190.011,,0.042,0.493,,0.576,22,2,8.835,W*17
$GNGFA,060913.00,,,0.254,0.142,66.054,0.547,,VVV*23
$PSSN,SNC,[0,108571000,2305,[1,2,0,0]]*4D
$GNRMC,060914.00,A,3737.7564260,N,12704.7384916,E,0.0,,110324,8.8,W,D*1F
$GNGGA,060914.00,3737.7564260,N,12704.7384916,E,5,14,1.1,31.5034,M,19.6707,M,2.0,0005*6C
$GNGNS,060914.00,3737.7564260,N,12704.7384916,E,FFFF,14,1.1,31.5034,19.6707,,*6B
$GPGNS,060914.00,,,,,,05,,,,2.0,5*75
$GLGNS,060914.00,,,,,,02,,,,2.0,5*6E
$GAGNS,060914.00,,,,,,03,,,,2.0,5*62
$GBGNS,060914.00,,,,,,04,,,,2.0,5*66
$PSSN,HRP,060914.00,110324,190.051,,0.036,0.499,,0.579,22,2,8.835,W*12
$GNGFA,060914.00,,,0.252,0.141,66.045,0.544,,VVV*22
$PSSN,SNC,[0,108572000,2305,[1,2,0,0]]*4E
$GNRMC,060915.00,A,3737.7564267,N,12704.7384832,E,0.0,,110324,8.8,W,D*1E
$GNGGA,060915.00,3737.7564267,N,12704.7384832,E,5,14,1.1,31.5311,M,19.6707,M,2.0,0005*69
$GNGNS,060915.00,3737.7564267,N,12704.7384832,E,FFFF,14,1.1,31.5311,19.6707,,*6E
$GPGNS,060915.00,,,,,,05,,,,2.0,5*74
$GLGNS,060915.00,,,,,,02,,,,2.0,5*6F
$GAGNS,060915.00,,,,,,03,,,,2.0,5*63
$GBGNS,060915.00,,,,,,04,,,,2.0,5*67
$PSSN,HRP,060915.00,110324,190.107,,0.133,0.494,,0.577,22,2,8.835,W*16
$GNGFA,060915.00,,,0.251,0.140,66.009,0.540,,VVV*2D
$PSSN,SNC,[0,108573000,2305,[1,2,0,0]]*4F
$GNRMC,060916.00,A,3737.7564140,N,12704.7384811,E,0.0,,110324,8.8,W,D*1A
$GNGGA,060916.00,3737.7564140,N,12704.7384811,E,5,14,1.1,31.5602,M,19.6707,M,2.0,0005*6A
$GNGNS,060916.00,3737.7564140,N,12704.7384811,E,FFFF,14,1.1,31.5602,19.6707,,*6D
$GPGNS,060916.00,,,,,,05,,,,2.0,5*77
$GLGNS,060916.00,,,,,,02,,,,2.0,5*6C
$GAGNS,060916.00,,,,,,03,,,,2.0,5*60
$GBGNS,060916.00,,,,,,04,,,,2.0,5*64
$PSSN,HRP,060916.00,110324,189.969,,0.093,0.497,,0.576,22,2,8.835,W*14
$GNGFA,060916.00,,,0.249,0.139,65.999,0.536,,VVV*2B
$PSSN,SNC,[0,108574000,2305,[1,2,0,0]]*48
$GNRMC,060917.00,A,3737.7564095,N,12704.7384784,E,0.0,,110324,8.8,W,D*11
$GNGGA,060917.00,3737.7564095,N,12704.7384784,E,5,14,1.1,31.5358,M,19.6707,M,2.0,0005*6B
$GNGNS,060917.00,3737.7564095,N,12704.7384784,E,FFFF,14,1.1,31.5358,19.6707,,*6C
$GPGNS,060917.00,,,,,,05,,,,2.0,5*76
$GLGNS,060917.00,,,,,,02,,,,2.0,5*6D
$GAGNS,060917.00,,,,,,03,,,,2.0,5*61
$GBGNS,060917.00,,,,,,04,,,,2.0,5*65
$PSSN,HRP,060917.00,110324,190.193,,0.248,0.491,,0.574,22,2,8.835,W*10
$GNGFA,060917.00,,,0.248,0.139,65.998,0.533,,VVV*2F
$PSSN,SNC,[0,108575000,2305,[1,2,0,0]]*49
$GNRMC,060918.00,A,3737.7564090,N,12704.7384706,E,0.0,,110324,8.8,W,D*11
$GNGGA,060918.00,3737.7564090,N,12704.7384706,E,5,14,1.1,31.5245,M,19.6707,M,2.0,0005*66
$GNGNS,060918.00,3737.7564090,N,12704.7384706,E,FFFF,14,1.1,31.5245,19.6707,,*61
$GPGNS,060918.00,,,,,,05,,,,2.0,5*79
$GLGNS,060918.00,,,,,,02,,,,2.0,5*62
$GAGNS,060918.00,,,,,,03,,,,2.0,5*6E
$GBGNS,060918.00,,,,,,04,,,,2.0,5*6A
$PSSN,HRP,060918.00,110324,190.099,,0.140,0.493,,0.576,22,2,8.835,W*1F
$GNGFA,060918.00,,,0.247,0.138,65.987,0.529,,VVV*2B
$PSSN,SNC,[0,108576000,2305,[1,2,0,0]]*4A
$GNRMC,060919.00,A,3737.7564114,N,12704.7384572,E,0.0,,110324,8.8,W,D*1C
$GNGGA,060919.00,3737.7564114,N,12704.7384572,E,5,14,1.1,31.5327,M,19.6707,M,2.0,0005*6E
$GNGNS,060919.00,3737.7564114,N,12704.7384572,E,FFFF,14,1.1,31.5327,19.6707,,*69
$GPGNS,060919.00,,,,,,05,,,,2.0,5*78
$GLGNS,060919.00,,,,,,02,,,,2.0,5*63
$GAGNS,060919.00,,,,,,03,,,,2.0,5*6F
$GBGNS,060919.00,,,,,,04,,,,2.0,5*6B
$PSSN,HRP,060919.00,110324,190.137,,0.145,0.496,,0.575,22,2,8.835,W*18
$GNGFA,060919.00,,,0.245,0.137,65.974,0.526,,VVV*24
$PSSN,SNC,[0,108577000,2305,[1,2,0,0]]*4B
$GNRMC,060920.00,A,3737.7564102,N,12704.7384520,E,0.0,,110324,8.8,W,D*16
$GNGGA,060920.00,3737.7564102,N,12704.7384520,E,5,14,1.1,31.5478,M,19.6707,M,2.0,0005*69
$GNGNS,060920.00,3737.7564102,N,12704.7384520,E,FFFF,14,1.1,31.5478,19.6707,,*6E
$GPGNS,060920.00,,,,,,05,,,,2.0,5*72
$GLGNS,060920.00,,,,,,02,,,,2.0,5*69
$GAGNS,060920.00,,,,,,03,,,,2.0,5*65
$GBGNS,060920.00,,,,,,04,,,,2.0,5*61
$PSSN,HRP,060920.00,110324,190.078,,0.150,0.494,,0.575,22,2,8.835,W*1E
$GNGFA,060920.00,,,0.244,0.136,65.969,0.522,,VVV*26
$PSSN,SNC,[0,108578000,2305,[1,2,0,0]]*44
$GNRMC,060921.00,A,3737.7564167,N,12704.7384526,E,0.0,,110324,8.8,W,D*12
$GNGGA,060921.00,3737.7564167,N,12704.7384526,E,5,14,1.1,31.5333,M,19.6707,M,2.0,0005*65
$GNGNS,060921.00,3737.7564167,N,12704.7384526,E,FFFF,14,1.1,31.5333,19.6707,,*62
$GPGNS,060921.00,,,,,,05,,,,2.0,5*73
$GLGNS,060921.00,,,,,,02,,,,2.0,5*68
$GAGNS,060921.00,,,,,,03,,,,2.0,5*64
$GBGNS,060921.00,,,,,,04,,,,2.0,5*60
$PSSN,HRP,060921.00,110324,189.892,,-0.035,0.493,,0.576,22,2,8.835,W*30
$GNGFA,060921.00,,,0.243,0.136,65.978,0.519,,VVV*28
$PSSN,SNC,[0,108579000,2305,[1,2,0,0]]*45
$GNRMC,060922.00,A,3737.7564186,N,12704.7384521,E,0.0,,110324,8.8,W,D*19
$GNGGA,060922.00,3737.7564186,N,12704.7384521,E,5,11,1.1,31.5418,M,19.6707,M,2.0,0005*65
$GNGNS,060922.00,3737.7564186,N,12704.7384521,E,FNFF,11,1.1,31.5418,19.6707,,*6A
$GPGNS,060922.00,,,,,,04,,,,2.0,5*71
$GAGNS,060922.00,,,,,,03,,,,2.0,5*67
$GBGNS,060922.00,,,,,,04,,,,2.0,5*63
$PSSN,HRP,060922.00,110324,190.004,,0.056,0.497,,0.576,22,2,8.835,W*10
$GNGFA,060922.00,,,0.242,0.135,65.945,0.516,,VVV*28
$PSSN,SNC,[0,108580000,2305,[1,2,0,0]]*43
$GNRMC,060923.00,A,3737.7564208,N,12704.7384380,E,0.0,,110324,8.8,W,D*10
$GNGGA,060923.00,3737.7564208,N,12704.7384380,E,5,11,1.1,31.5588,M,19.6707,M,2.0,0005*64
$GNGNS,060923.00,3737.7564208,N,12704.7384380,E,FNFF,11,1.1,31.5588,19.6707,,*6B
$GPGNS,060923.00,,,,,,04,,,,2.0,5*70
$GAGNS,060923.00,,,,,,03,,,,2.0,5*66
$GBGNS,060923.00,,,,,,04,,,,2.0,5*62
$PSSN,HRP,060923.00,110324,190.055,,0.143,0.491,,0.575,22,2,8.835,W*15
$GNGFA,060923.00,,,0.240,0.134,65.920,0.514,,VVV*2B
$PSSN,SNC,[0,108581000,2305,[1,2,0,0]]*42
$GNRMC,060924.00,A,3737.7564252,N,12704.7384386,E,0.0,,110324,8.8,W,D*1E
$GNGGA,060924.00,3737.7564252,N,12704.7384386,E,5,11,1.1,31.5340,M,19.6707,M,2.0,0005*68
$GNGNS,060924.00,3737.7564252,N,12704.7384386,E,FNFF,11,1.1,31.5340,19.6707,,*67
$GPGNS,060924.00,,,,,,04,,,,2.0,5*77
$GAGNS,060924.00,,,,,,03,,,,2.0,5*61
$GBGNS,060924.00,,,,,,04,,,,2.0,5*65
$PSSN,HRP,060924.00,110324,189.904,,-0.070,0.497,,0.578,22,2,8.835,W*30
$GNGFA,060924.00,,,0.239,0.134,65.901,0.511,,VVV*24
$PSSN,SNC,[0,108582000,2305,[1,2,0,0]]*41
$GNRMC,060925.00,A,3737.7564250,N,12704.7384359,E,0.0,,110324,8.8,W,D*1F
$GNGGA,060925.00,3737.7564250,N,12704.7384359,E,5,13,1.1,31.5069,M,19.6707,M,2.0,0005*63
$GNGNS,060925.00,3737.7564250,N,12704.7384359,E,FFFF,13,1.1,31.5069,19.6707,,*64
$GPGNS,060925.00,,,,,,04,,,,2.0,5*76
$GLGNS,060925.00,,,,,,02,,,,2.0,5*6C
$GAGNS,060925.00,,,,,,03,,,,2.0,5*60
$GBGNS,060925.00,,,,,,04,,,,2.0,5*64
$PSSN,HRP,060925.00,110324,189.883,,-0.005,0.495,,0.576,22,2,8.835,W*31
$GNGFA,060925.00,,,0.238,0.133,65.869,0.509,,VVV*25
$PSSN,SNC,[0,108583000,2305,[1,2,0,0]]*40
$GNRMC,060926.00,A,3737.7564297,N,12704.7384336,E,0.0,,110324,8.8,W,D*1E
$GNGGA,060926.00,3737.7564297,N,12704.7384336,E,5,14,1.1,31.4947,M,19.6707,M,2.0,0005*61
$GNGNS,060926.00,3737.7564297,N,12704.7384336,E,FFFF,14,1.1,31.4947,19.6707,,*66
$GPGNS,060926.00,,,,,,05,,,,2.0,5*74
$GLGNS,060926.00,,,,,,02,,,,2.0,5*6F
$GAGNS,060926.00,,,,,,03,,,,2.0,5*63
$GBGNS,060926.00,,,,,,04,,,,2.0,5*67
$PSSN,HRP,060926.00,110324,189.895,,-0.089,0.498,,0.577,22,2,8.835,W*3D
$GNGFA,060926.00,,,0.237,0.132,65.960,0.506,,VVV*2F
$PSSN,SNC,[0,108584000,2305,[1,2,0,0]]*47
$GNRMC,060927.00,A,3737.7564320,N,12704.7384392,E,0.0,,110324,8.8,W,D*1C
$GNGGA,060927.00,3737.7564320,N,12704.7384392,E,5,14,1.1,31.4709,M,19.6707,M,2.0,0005*67
$GNGNS,060927.00,3737.7564320,N,12704.7384392,E,FFFF,14,1.1,31.4709,19.6707,,*60
$GPGNS,060927.00,,,,,,05,,,,2.0,5*75
$GLGNS,060927.00,,,,,,02,,,,2.0,5*6E
$GAGNS,060927.00,,,,,,03,,,,2.0,5*62
$GBGNS,060927.00,,,,,,04,,,,2.0,5*66
$PSSN,HRP,060927.00,110324,190.133,,0.197,0.496,,0.577,22,2,8.835,W*1C
$GNGFA,060927.00,,,0.235,0.131,65.952,0.504,,VVV*2C
$PSSN,SNC,[0,108585000,2305,[1,2,0,0]]*46
$GNRMC,060928.00,A,3737.7564320,N,12704.7384402,E,0.0,,110324,8.8,W,D*1D
$GNGGA,060928.00,3737.7564320,N,12704.7384402,E,5,14,1.1,31.4788,M,19.6707,M,2.0,0005*6F
$GNGNS,060928.00,3737.7564320,N,12704.7384402,E,FFFF,14,1.1,31.4788,19.6707,,*68
$GPGNS,060928.00,,,,,,05,,,,2.0,5*7A
$GLGNS,060928.00,,,,,,02,,,,2.0,5*61
$GAGNS,060928.00,,,,,,03,,,,2.0,5*6D
$GBGNS,060928.00,,,,,,04,,,,2.0,5*69
$PSSN,HRP,060928.00,110324,189.831,,-0.133,0.499,,0.579,22,2,8.835,W*32
$GNGFA,060928.00,,,0.234,0.131,65.913,0.501,,VVV*22
$PSSN,SNC,[0,108586000,2305,[1,2,0,0]]*45
$GNRMC,060929.00,A,3737.7564233,N,12704.7384429,E,0.0,,110324,8.8,W,D*16
$GNGGA,060929.00,3737.7564233,N,12704.7384429,E,5,14,1.1,31.5225,M,19.6707,M,2.0,0005*67
$GNGNS,060929.00,3737.7564233,N,12704.7384429,E,FFFF,14,1.1,31.5225,19.6707,,*60
$GPGNS,060929.00,,,,,,05,,,,2.0,5*7B
$GLGNS,060929.00,,,,,,02,,,,2.0,5*60
$GAGNS,060929.00,,,,,,03,,,,2.0,5*6C
$GBGNS,060929.00,,,,,,04,,,,2.0,5*68
$PSSN,HRP,060929.00,110324,189.946,,0.046,0.500,,0.577,22,2,8.835,W*13
$GNGFA,060929.00,,,0.233,0.130,65.890,0.499,,VVV*2F
$PSSN,SNC,[0,108587000,2305,[1,2,0,0]]*44
$GNRMC,060930.00,A,3737.7564216,N,12704.7384442,E,0.0,,110324,8.8,W,D*14
$GNGGA,060930.00,3737.7564216,N,12704.7384442,E,5,14,1.1,31.5461,M,19.6707,M,2.0,0005*63
$GNGNS,060930.00,3737.7564216,N,12704.7384442,E,FFFF,14,1.1,31.5461,19.6707,,*64
$GPGNS,060930.00,,,,,,05,,,,2.0,5*73
$GLGNS,060930.00,,,,,,02,,,,2.0,5*68
$GAGNS,060930.00,,,,,,03,,,,2.0,5*64
$GBGNS,060930.00,,,,,,04,,,,2.0,5*60
$PSSN,HRP,060930.00,110324,190.025,,0.034,0.491,,0.576,22,2,8.835,W*12
$GNGFA,060930.00,,,0.232,0.129,65.880,0.496,,VVV*20
$PSSN,SNC,[0,108588000,2305,[1,2,0,0]]*4B
$GNRMC,060931.00,A,3737.7564142,N,12704.7384474,E,0.0,,110324,8.8,W,D*12
$GNGGA,060931.00,3737.7564142,N,12704.7384474,E,5,14,1.1,31.5873,M,19.6707,M,2.0,0005*6A
$GNGNS,060931.00,3737.7564142,N,12704.7384474,E,FFFF,14,1.1,31.5873,19.6707,,*6D
$GPGNS,060931.00,,,,,,05,,,,2.0,5*72
$GLGNS,060931.00,,,,,,02,,,,2.0,5*69
$GAGNS,060931.00,,,,,,03,,,,2.0,5*65
$GBGNS,060931.00,,,,,,04,,,,2.0,5*61
$PSSN,HRP,060931.00,110324,190.030,,0.003,0.495,,0.576,22,2,8.835,W*17
$GNGFA,060931.00,,,0.231,0.129,65.870,0.494,,VVV*2F
$PSSN,SNC,[0,108589000,2305,[1,2,0,0]]*4A
$GNRMC,060932.00,A,3737.7564129,N,12704.7384515,E,0.0,,110324,8.8,W,D*1A
$GNGGA,060932.00,3737.7564129,N,12704.7384515,E,5,14,1.1,31.6239,M,19.6707,M,2.0,0005*65
$GNGNS,060932.00,3737.7564129,N,12704.7384515,E,FFFF,14,1.1,31.6239,19.6707,,*62
$GPGNS,060932.00,,,,,,05,,,,2.0,5*71
$GLGNS,060932.00,,,,,,02,,,,2.0,5*6A
$GAGNS,060932.00,,,,,,03,,,,2.0,5*66
$GBGNS,060932.00,,,,,,04,,,,2.0,5*62
$PSSN,HRP,060932.00,110324,190.015,,-0.041,0.495,,0.577,22,2,8.835,W*39
$GNGFA,060932.00,,,0.230,0.128,65.882,0.491,,VVV*24
$PSSN,SNC,[0,108590000,2305,[1,2,0,0]]*42
$GNRMC,060933.00,A,3737.7564120,N,12704.7384482,E,0.0,,110324,8.8,W,D*1D
$GNGGA,060933.00,3737.7564120,N,12704.7384482,E,5,14,1.1,31.6055,M,19.6707,M,2.0,0005*6A
$GNGNS,060933.00,3737.7564120,N,12704.7384482,E,FFFF,14,1.1,31.6055,19.6707,,*6D
$GPGNS,060933.00,,,,,,05,,,,2.0,5*70
$GLGNS,060933.00,,,,,,02,,,,2.0,5*6B
$GAGNS,060933.00,,,,,,03,,,,2.0,5*67
$GBGNS,060933.00,,,,,,04,,,,2.0,5*63
$PSSN,HRP,060933.00,110324,189.950,,0.100,0.496,,0.576,22,2,8.835,W*13
$GNGFA,060933.00,,,0.229,0.128,65.868,0.489,,VVV*20
$PSSN,SNC,[0,108591000,2305,[1,2,0,0]]*43
$GNRMC,060934.00,A,3737.7564126,N,12704.7384482,E,0.0,,110324,8.8,W,D*1C
$GNGGA,060934.00,3737.7564126,N,12704.7384482,E,5,14,1.1,31.5934,M,19.6707,M,2.0,0005*66
$GNGNS,060934.00,3737.7564126,N,12704.7384482,E,FFFF,14,1.1,31.5934,19.6707,,*61
$GPGNS,060934.00,,,,,,05,,,,2.0,5*77
$GLGNS,060934.00,,,,,,02,,,,2.0,5*6C
$GAGNS,060934.00,,,,,,03,,,,2.0,5*60
$GBGNS,060934.00,,,,,,04,,,,2.0,5*64
$PSSN,HRP,060934.00,110324,190.124,,0.120,0.501,,0.577,22,2,8.835,W*1B
$GNGFA,060934.00,,,0.228,0.127,65.858,0.487,,VVV*24
$PSSN,SNC,[0,108592000,2305,[1,2,0,0]]*40
$GNRMC,060935.00,A,3737.7564110,N,12704.7384374,E,0.0,,110324,8.8,W,D*16
$GNGGA,060935.00,3737.7564110,N,12704.7384374,E,5,12,1.1,31.6229,M,19.6707,M,2.0,0005*6E
$GNGNS,060935.00,3737.7564110,N,12704.7384374,E,FNFF,12,1.1,31.6229,19.6707,,*61
$GPGNS,060935.00,,,,,,05,,,,2.0,5*76
$GAGNS,060935.00,,,,,,03,,,,2.0,5*61
$GBGNS,060935.00,,,,,,04,,,,2.0,5*65
$PSSN,HRP,060935.00,110324,189.957,,-0.007,0.496,,0.576,22,2,8.835,W*39
$GNGFA,060935.00,,,0.227,0.126,65.857,0.484,,VVV*27
$PSSN,SNC,[0,108593000,2305,[1,2,0,0]]*41
$GNRMC,060936.00,A,3737.7564141,N,12704.7384395,E,0.0,,110324,8.8,W,D*1E
$GNGGA,060936.00,3737.7564141,N,12704.7384395,E,5,12,1.1,31.6251,M,19.6707,M,2.0,0005*69
$GNGNS,060936.00,3737.7564141,N,12704.7384395,E,FNFF,12,1.1,31.6251,19.6707,,*66
$GPGNS,060936.00,,,,,,05,,,,2.0,5*75
$GAGNS,060936.00,,,,,,03,,,,2.0,5*62
$GBGNS,060936.00,,,,,,04,,,,2.0,5*66
$PSSN,HRP,060936.00,110324,189.717,,-0.223,0.504,,0.580,22,2,8.835,W*37
$GNGFA,060936.00,,,0.226,0.126,65.861,0.482,,VVV*26
$PSSN,SNC,[0,108594000,2305,[1,2,0,0]]*46
$GNRMC,060937.00,A,3737.7564131,N,12704.7384341,E,0.0,,110324,8.8,W,D*11
$GNGGA,060937.00,3737.7564131,N,12704.7384341,E,5,12,1.1,31.6203,M,19.6707,M,2.0,0005*61
$GNGNS,060937.00,3737.7564131,N,12704.7384341,E,FNFF,12,1.1,31.6203,19.6707,,*6E
$GPGNS,060937.00,,,,,,05,,,,2.0,5*74
$GAGNS,060937.00,,,,,,03,,,,2.0,5*63
$GBGNS,060937.00,,,,,,04,,,,2.0,5*67
$PSSN,HRP,060937.00,110324,190.122,,0.117,0.496,,0.575,22,2,8.835,W*17
$GNGFA,060937.00,,,0.225,0.125,65.839,0.480,,VVV*28
$PSSN,SNC,[0,108595000,2305,[1,2,0,0]]*47
$GNRMC,060938.00,A,3737.7564083,N,12704.7384381,E,0.0,,110324,8.8,W,D*1A
$GNGGA,060938.00,3737.7564083,N,12704.7384381,E,5,12,1.1,31.6265,M,19.6707,M,2.0,0005*6A
$GNGNS,060938.00,3737.7564083,N,12704.7384381,E,FNFF,12,1.1,31.6265,19.6707,,*65
$GPGNS,060938.00,,,,,,05,,,,2.0,5*7B
$GAGNS,060938.00,,,,,,03,,,,2.0,5*6C
$GBGNS,060938.00,,,,,,04,,,,2.0,5*68
$PSSN,HRP,060938.00,110324,189.923,,-0.061,0.494,,0.575,22,2,8.835,W*36
$GNGFA,060938.00,,,0.224,0.125,65.836,0.478,,VVV*2E
$PSSN,SNC,[0,108596000,2305,[1,2,0,0]]*44
$GNRMC,060939.00,A,3737.7564071,N,12704.7384446,E,0.0,,110324,8.8,W,D*1A
$GNGGA,060939.00,3737.7564071,N,12704.7384446,E,5,12,1.1,31.6349,M,19.6707,M,2.0,0005*65
$GNGNS,060939.00,3737.7564071,N,12704.7384446,E,FNFF,12,1.1,31.6349,19.6707,,*6A
$GPGNS,060939.00,,,,,,05,,,,2.0,5*7A
$GAGNS,060939.00,,,,,,03,,,,2.0,5*6D
$GBGNS,060939.00,,,,,,04,,,,2.0,5*69
$PSSN,HRP,060939.00,110324,190.090,,0.123,0.495,,0.576,22,2,8.835,W*16
$GNGFA,060939.00,,,0.223,0.124,65.839,0.475,,VVV*2B
$PSSN,SNC,[0,108597000,2305,[1,2,0,0]]*45
$GNRMC,060940.00,A,3737.7564059,N,12704.7384394,E,0.0,,110324,8.8,W,D*16
$GNGGA,060940.00,3737.7564059,N,12704.7384394,E,5,12,1.1,31.6242,M,19.6707,M,2.0,0005*63
$GNGNS,060940.00,3737.7564059,N,12704.7384394,E,FNFF,12,1.1,31.6242,19.6707,,*6C
$GPGNS,060940.00,,,,,,05,,,,2.0,5*74
$GAGNS,060940.00,,,,,,03,,,,2.0,5*63
$GBGNS,060940.00,,,,,,04,,,,2.0,5*67
$PSSN,HRP,060940.00,110324,190.022,,0.136,0.501,,0.578,22,2,8.835,W*17
$GNGFA,060940.00,,,0.222,0.124,65.839,0.473,,VVV*22
$PSSN,SNC,[0,108598000,2305,[1,2,0,0]]*4A
$GNRMC,060941.00,A,3737.7564107,N,12704.7384423,E,0.0,,110324,8.8,W,D*16
$GNGGA,060941.00,3737.7564107,N,12704.7384423,E,5,12,1.1,31.6046,M,19.6707,M,2.0,0005*65
$GNGNS,060941.00,3737.7564107,N,12704.7384423,E,FNFF,12,1.1,31.6046,19.6707,,*6A
$GPGNS,060941.00,,,,,,05,,,,2.0,5*75
$GAGNS,060941.00,,,,,,03,,,,2.0,5*62
$GBGNS,060941.00,,,,,,04,,,,2.0,5*66
$PSSN,HRP,060941.00,110324,189.935,,0.053,0.498,,0.577,23,2,8.835,W*1C
$GNGFA,060941.00,,,0.221,0.123,65.840,0.471,,VVV*2B
$PSSN,SNC,[0,108599000,2305,[1,2,0,0]]*4B
$GNRMC,060958.00,A,3737.7564114,N,12704.7384543,E,0.0,,110324,8.8,W,D*1B
$GNGGA,060958.00,3737.7564114,N,12704.7384543,E,5,11,1.1,31.6031,M,19.6707,M,2.0,0005*6B
$GNGNS,060958.00,3737.7564114,N,12704.7384543,E,FNFF,11,1.1,31.6031,19.6707,,*64
$GPGNS,060958.00,,,,,,05,,,,2.0,5*7D
$GAGNS,060958.00,,,,,,03,,,,2.0,5*6A
$GBGNS,060958.00,,,,,,03,,,,2.0,5*69
$PSSN,HRP,060958.00,110324,190.033,,0.070,0.494,,0.575,23,2,8.835,W*1C
$GNGFA,060958.00,,,0.206,0.115,65.908,0.438,,VVV*23
$PSSN,SNC,[0,108616000,2305,[1,2,0,0]]*4F
$GNRMC,060959.00,A,3737.7564125,N,12704.7384534,E,0.0,,110324,8.8,W,D*18
$GNGGA,060959.00,3737.7564125,N,12704.7384534,E,5,11,1.1,31.6065,M,19.6707,M,2.0,0005*69
$GNGNS,060959.00,3737.7564125,N,12704.7384534,E,FNFF,11,1.1,31.6065,19.6707,,*66
$GPGNS,060959.00,,,,,,04,,,,2.0,5*7D
$GAGNS,060959.00,,,,,,03,,,,2.0,5*6B
$GBGNS,060959.00,,,,,,04,,,,2.0,5*6F
$PSSN,HRP,060959.00,110324,189.782,,-0.161,0.499,,0.577,23,2,8.835,W*3B
$GNGFA,060959.00,,,0.206,0.115,65.870,0.436,,VVV*22
$PSSN,SNC,[0,108617000,2305,[1,2,0,0]]*4E
$GNRMC,061000.00,A,3737.7560520,N,12704.7386829,E,0.0,,110324,8.8,W,D*1A
$GNGGA,061000.00,3737.7560520,N,12704.7386829,E,5,10,1.1,29.1002,M,19.6708,M,2.0,0005*6A
$GNGNS,061000.00,3737.7560520,N,12704.7386829,E,FNFF,10,1.1,29.1002,19.6708,,*65
$GPGNS,061000.00,,,,,,03,,,,2.0,5*7E
$GAGNS,061000.00,,,,,,03,,,,2.0,5*6F
$GBGNS,061000.00,,,,,,04,,,,2.0,5*6B
$PSSN,HRP,061000.00,110324,189.971,,0.069,0.498,,0.576,22,2,8.835,W*18
$GNGFA,061000.00,,,1.379,0.740,66.981,3.030,,VVV*25
$PSSN,SNC,[0,108618000,2305,[1,2,0,0]]*41
$GNRMC,061001.00,A,3737.7560703,N,12704.7386752,E,0.0,,110324,8.8,W,D*1B
$GNGGA,061001.00,3737.7560703,N,12704.7386752,E,5,10,1.1,28.9382,M,19.6708,M,2.0,0005*69
$GNGNS,061001.00,3737.7560703,N,12704.7386752,E,FNFF,10,1.1,28.9382,19.6708,,*66
$GPGNS,061001.00,,,,,,03,,,,2.0,5*7F
$GAGNS,061001.00,,,,,,03,,,,2.0,5*6E
$GBGNS,061001.00,,,,,,04,,,,2.0,5*6A
$PSSN,HRP,061001.00,110324,189.744,,-0.109,0.493,,0.575,23,2,8.835,W*32
$GNGFA,061001.00,,,1.285,0.682,66.661,2.782,,VVV*27
$PSSN,SNC,[0,108619000,2305,[1,2,0,0]]*40
$GNRMC,061002.00,A,3737.7560237,N,12704.7385837,E,0.0,,110324,8.8,W,D*15
$GNGGA,061002.00,3737.7560237,N,12704.7385837,E,5,10,1.1,28.9203,M,19.6708,M,2.0,0005*6F
$GNGNS,061002.00,3737.7560237,N,12704.7385837,E,FNFF,10,1.1,28.9203,19.6708,,*60
$GPGNS,061002.00,,,,,,03,,,,2.0,5*7C
$GAGNS,061002.00,,,,,,03,,,,2.0,5*6D
$GBGNS,061002.00,,,,,,04,,,,2.0,5*69
$PSSN,HRP,061002.00,110324,189.877,,-0.055,0.491,,0.573,23,2,8.835,W*32
$GNGFA,061002.00,,,1.201,0.627,66.707,2.563,,VVV*2B
$PSSN,SNC,[0,108620000,2305,[1,2,0,0]]*4A
$GNRMC,061003.00,A,3737.7560662,N,12704.7386618,E,0.0,,110324,8.8,W,D*10
$GNGGA,061003.00,3737.7560662,N,12704.7386618,E,5,11,1.1,28.8597,M,19.6708,M,2.0,0005*60
$GNGNS,061003.00,3737.7560662,N,12704.7386618,E,FNFF,11,1.1,28.8597,19.6708,,*6F
$GPGNS,061003.00,,,,,,04,,,,2.0,5*7A
$GAGNS,061003.00,,,,,,03,,,,2.0,5*6C
$GBGNS,061003.00,,,,,,04,,,,2.0,5*68
$PSSN,HRP,061003.00,110324,189.927,,0.047,0.491,,0.573,23,2,8.835,W*19
$GNGFA,061003.00,,,1.070,0.569,68.951,2.371,,VVV*21
$PSSN,SNC,[0,108621000,2305,[1,2,0,0]]*4B
$GNRMC,061004.00,A,3737.7560906,N,12704.7387361,E,0.0,,110324,8.8,W,D*10
$GNGGA,061004.00,3737.7560906,N,12704.7387361,E,5,12,1.1,28.9564,M,19.6708,M,2.0,0005*6E
$GNGNS,061004.00,3737.7560906,N,12704.7387361,E,FNFF,12,1.1,28.9564,19.6708,,*61
$GPGNS,061004.00,,,,,,05,,,,2.0,5*7C
$GAGNS,061004.00,,,,,,03,,,,2.0,5*6B
$GBGNS,061004.00,,,,,,04,,,,2.0,5*6F
$PSSN,HRP,061004.00,110324,189.924,,-0.060,0.496,,0.575,23,2,8.835,W*34
$GNGFA,061004.00,,,0.984,0.526,69.458,2.132,,VVV*2E
$PSSN,SNC,[0,108622000,2305,[1,2,0,0]]*48
$GNRMC,061005.00,A,3737.7561250,N,12704.7387628,E,0.0,,110324,8.8,W,D*10
$GNGGA,061005.00,3737.7561250,N,12704.7387628,E,5,12,1.1,29.1295,M,19.6708,M,2.0,0005*6E
$GNGNS,061005.00,3737.7561250,N,12704.7387628,E,FNFF,12,1.1,29.1295,19.6708,,*61
$GPGNS,061005.00,,,,,,05,,,,2.0,5*7D
$GAGNS,061005.00,,,,,,03,,,,2.0,5*6A
$GBGNS,061005.00,,,,,,04,,,,2.0,5*6E
$PSSN,HRP,061005.00,110324,189.845,,-0.022,0.492,,0.573,23,2,8.835,W*37
$GNGFA,061005.00,,,0.922,0.492,69.341,1.998,,VVV*29
$PSSN,SNC,[0,108623000,2305,[1,2,0,0]]*49
$GNRMC,061006.00,A,3737.7561524,N,12704.7387481,E,0.0,,110324,8.8,W,D*16
$GNGGA,061006.00,3737.7561524,N,12704.7387481,E,5,12,1.1,29.1193,M,19.6708,M,2.0,0005*6D
$GNGNS,061006.00,3737.7561524,N,12704.7387481,E,FNFF,12,1.1,29.1193,19.6708,,*62
$GPGNS,061006.00,,,,,,05,,,,2.0,5*7E
$GAGNS,061006.00,,,,,,03,,,,2.0,5*69
$GBGNS,061006.00,,,,,,04,,,,2.0,5*6D
$PSSN,HRP,061006.00,110324,189.789,,-0.192,0.496,,0.576,23,2,8.835,W*30
$GNGFA,061006.00,,,0.869,0.463,69.219,1.883,,VVV*2D
$PSSN,SNC,[0,108624000,2305,[1,2,0,0]]*4E
$GNRMC,061007.00,A,3737.7561520,N,12704.7386800,E,0.0,,110324,8.8,W,D*17
$GNGGA,061007.00,3737.7561520,N,12704.7386800,E,5,12,1.1,29.3898,M,19.6708,M,2.0,0005*6C
$GNGNS,061007.00,3737.7561520,N,12704.7386800,E,FNFF,12,1.1,29.3898,19.6708,,*63
$GPGNS,061007.00,,,,,,05,,,,2.0,5*7F
$GAGNS,061007.00,,,,,,03,,,,2.0,5*68
$GBGNS,061007.00,,,,,,04,,,,2.0,5*6C
$PSSN,HRP,061007.00,110324,189.958,,-0.000,0.493,,0.574,23,2,8.835,W*3E
$GNGFA,061007.00,,,0.821,0.438,69.027,1.784,,VVV*29
$PSSN,SNC,[0,108625000,2305,[1,2,0,0]]*4F
$GNRMC,061008.00,A,3737.7561777,N,12704.7385511,E,0.0,,110324,8.8,W,D*16
$GNGGA,061008.00,3737.7561777,N,12704.7385511,E,5,12,1.1,29.7605,M,19.6707,M,2.0,0005*6C
$GNGNS,061008.00,3737.7561777,N,12704.7385511,E,FNFF,12,1.1,29.7605,19.6707,,*63
$GPGNS,061008.00,,,,,,05,,,,2.0,5*70
$GAGNS,061008.00,,,,,,03,,,,2.0,5*67
$GBGNS,061008.00,,,,,,04,,,,2.0,5*63
$PSSN,HRP,061008.00,110324,189.980,,0.041,0.496,,0.576,22,2,8.835,W*1A
$GNGFA,061008.00,,,0.773,0.416,68.529,1.697,,VVV*2B
$PSSN,SNC,[0,108626000,2305,[1,2,0,0]]*4C
$GNRMC,061009.00,A,3737.7562099,N,12704.7384791,E,0.0,,110324,8.8,W,D*18
$GNGGA,061009.00,3737.7562099,N,12704.7384791,E,5,12,1.1,29.9712,M,19.6707,M,2.0,0005*6B
$GNGNS,061009.00,3737.7562099,N,12704.7384791,E,FNFF,12,1.1,29.9712,19.6707,,*64
$GPGNS,061009.00,,,,,,05,,,,2.0,5*71
$GAGNS,061009.00,,,,,,03,,,,2.0,5*66
$GBGNS,061009.00,,,,,,04,,,,2.0,5*62
$PSSN,HRP,061009.00,110324,189.785,,-0.068,0.503,,0.577,22,2,8.835,W*3A
$GNGFA,061009.00,,,0.735,0.397,68.235,1.621,,VVV*21
$PSSN,SNC,[0,108627000,2305,[1,2,0,0]]*4D
$GNRMC,061010.00,A,3737.7562321,N,12704.7384290,E,0.0,,110324,8.8,W,D*14
$GNGGA,061010.00,3737.7562321,N,12704.7384290,E,5,12,1.1,30.1612,M,19.6707,M,2.0,0005*66
$GNGNS,061010.00,3737.7562321,N,12704.7384290,E,FNFF,12,1.1,30.1612,19.6707,,*69
$GPGNS,061010.00,,,,,,05,,,,2.0,5*79
$GAGNS,061010.00,,,,,,03,,,,2.0,5*6E
$GBGNS,061010.00,,,,,,04,,,,2.0,5*6A
$PSSN,HRP,061010.00,110324,189.764,,-0.099,0.497,,0.576,22,2,8.835,W*3E
$GNGFA,061010.00,,,0.703,0.381,68.070,1.554,,VVV*29
$PSSN,SNC,[0,108628000,2305,[1,2,0,0]]*42
$GNRMC,061011.00,A,3737.7562428,N,12704.7383579,E,0.0,,110324,8.8,W,D*1C
$GNGGA,061011.00,3737.7562428,N,12704.7383579,E,5,12,1.1,30.3659,M,19.6707,M,2.0,0005*63
$GNGNS,061011.00,3737.7562428,N,12704.7383579,E,FNFF,12,1.1,30.3659,19.6707,,*6C
$GPGNS,061011.00,,,,,,05,,,,2.0,5*78
$GAGNS,061011.00,,,,,,03,,,,2.0,5*6F
$GBGNS,061011.00,,,,,,04,,,,2.0,5*6B
$PSSN,HRP,061011.00,110324,189.835,,-0.090,0.501,,0.577,23,2,8.835,W*33
$GNGFA,061011.00,,,0.677,0.366,67.996,1.495,,VVV*21
$PSSN,SNC,[0,108629000,2305,[1,2,0,0]]*43
$GNRMC,061012.00,A,3737.7562539,N,12704.7382784,E,0.0,,110324,8.8,W,D*1F
$GNGGA,061012.00,3737.7562539,N,12704.7382784,E,5,12,1.1,30.6963,M,19.6707,M,2.0,0005*63
$GNGNS,061012.00,3737.7562539,N,12704.7382784,E,FNFF,12,1.1,30.6963,19.6707,,*6C
$GPGNS,061012.00,,,,,,05,,,,2.0,5*7B
$GAGNS,061012.00,,,,,,03,,,,2.0,5*6C
$GBGNS,061012.00,,,,,,04,,,,2.0,5*68
$PSSN,HRP,061012.00,110324,190.142,,0.155,0.498,,0.576,22,2,8.835,W*15
$GNGFA,061012.00,,,0.653,0.353,67.942,1.442,,VVV*21
$PSSN,SNC,[0,108630000,2305,[1,2,0,0]]*4B
$GNRMC,061013.00,A,3737.7562717,N,12704.7381932,E,0.0,,110324,8.8,W,D*10
$GNGGA,061013.00,3737.7562717,N,12704.7381932,E,5,12,1.1,31.1027,M,19.6707,M,2.0,0005*63
$GNGNS,061013.00,3737.7562717,N,12704.7381932,E,FNFF,12,1.1,31.1027,19.6707,,*6C
$GPGNS,061013.00,,,,,,05,,,,2.0,5*7A
$GAGNS,061013.00,,,,,,03,,,,2.0,5*6D
$GBGNS,061013.00,,,,,,04,,,,2.0,5*69
$PSSN,HRP,061013.00,110324,190.006,,0.062,0.502,,0.576,22,2,8.835,W*12
$GNGFA,061013.00,,,0.630,0.341,67.831,1.393,,VVV*28
$PSSN,SNC,[0,108631000,2305,[1,2,0,0]]*4A
$GNRMC,061014.00,A,3737.7563032,N,12704.7381317,E,0.0,,110324,8.8,W,D*1B
$GNGGA,061014.00,3737.7563032,N,12704.7381317,E,5,12,1.1,31.3927,M,19.6707,M,2.0,0005*63
$GNGNS,061014.00,3737.7563032,N,12704.7381317,E,FNFF,12,1.1,31.3927,19.6707,,*6C
$GPGNS,061014.00,,,,,,05,,,,2.0,5*7D
$GAGNS,061014.00,,,,,,03,,,,2.0,5*6A
$GBGNS,061014.00,,,,,,04,,,,2.0,5*6E
$PSSN,HRP,061014.00,110324,189.812,,-0.104,0.500,,0.576,22,2,8.835,W*3E
$GNGFA,061014.00,,,0.609,0.331,67.695,1.350,,VVV*2D
$PSSN,SNC,[0,108632000,2305,[1,2,0,0]]*49
$GNRMC,061015.00,A,3737.7563378,N,12704.7381347,E,0.0,,110324,8.8,W,D*12
$GNGGA,061015.00,3737.7563378,N,12704.7381347,E,5,12,1.1,31.5463,M,19.6707,M,2.0,0005*61
$GNGNS,061015.00,3737.7563378,N,12704.7381347,E,FNFF,12,1.1,31.5463,19.6707,,*6E
$GPGNS,061015.00,,,,,,05,,,,2.0,5*7C
$GAGNS,061015.00,,,,,,03,,,,2.0,5*6B
$GBGNS,061015.00,,,,,,04,,,,2.0,5*6F
$PSSN,HRP,061015.00,110324,189.973,,0.084,0.499,,0.575,22,2,8.835,W*1F
$GNGFA,061015.00,,,0.591,0.321,67.620,1.309,,VVV*2D
$PSSN,SNC,[0,108633000,2305,[1,2,0,0]]*48
$GNRMC,061016.00,A,3737.7563302,N,12704.7381705,E,0.0,,110324,8.8,W,D*1E
$GNGGA,061016.00,3737.7563302,N,12704.7381705,E,5,12,1.1,31.6172,M,19.6707,M,2.0,0005*6B
$GNGNS,061016.00,3737.7563302,N,12704.7381705,E,FNFF,12,1.1,31.6172,19.6707,,*64
$GPGNS,061016.00,,,,,,05,,,,2.0,5*7F
$GAGNS,061016.00,,,,,,03,,,,2.0,5*68
$GBGNS,061016.00,,,,,,04,,,,2.0,5*6C
$PSSN,HRP,061016.00,110324,189.781,,-0.055,0.499,,0.575,22,2,8.835,W*3E
$GNGFA,061016.00,,,0.573,0.312,67.528,1.272,,VVV*24
